[{"id":"24271x2905","lat":"46.6745","lon":"7.26243","name":"Schwyberg","flights":"33"},{"id":"24209x3155","lat":"46.5563","lon":"7.8876","name":"Schiltgrat Muerren","flights":"230"},{"id":"21254x8719","lat":"40.8739","lon":"21.7967","name":"Kerasies","flights":"2348"},{"id":"19853x8707","lat":"38.1789","lon":"21.7668","name":"Omplos","flights":"1212"},{"id":"28300x-477","lat":"54.4224","lon":"-1.1928","name":"Model Ridge","flights":"594"},{"id":"29322x33985","lat":"56.3885","lon":"84.9627","name":"Tomsk","flights":"3"},{"id":"20730x-47881","lat":"39.8663","lon":"-119.702","name":"Air Sailing","flights":"14"},{"id":"21019x-2120","lat":"40.4216","lon":"-5.301","name":"Piedrahita","flights":"5061"},{"id":"21873x9836","lat":"42.0631","lon":"24.589","name":"Brestovica Bulgaria","flights":"152"},{"id":"22507x10848","lat":"43.2822","lon":"27.1199","name":"Madara","flights":"1204"},{"id":"20702x12046","lat":"39.8109","lon":"30.1141","name":"Inonu Eskisehir","flights":"263"},{"id":"20552x12339","lat":"39.5232","lon":"30.8484","name":"40 Girl Hill Eskisehir","flights":"350"},{"id":"20493x8692","lat":"39.4102","lon":"21.73","name":"Ellinopyrgos","flights":"259"},{"id":"24599x4551","lat":"47.305","lon":"11.3774","name":"Seegrube","flights":"1362"},{"id":"22389x5067","lat":"43.056","lon":"12.6677","name":"Monte Subasio","flights":"1112"},{"id":"22262x5273","lat":"42.8107","lon":"13.1824","name":"Castelluccio E","flights":"548"},{"id":"24263x2918","lat":"46.6595","lon":"7.29377","name":"Riggisalp","flights":"135"},{"id":"24230x4581","lat":"46.5953","lon":"11.4521","name":"Crissm\u00f3es","flights":"46"},{"id":"26345x6031","lat":"50.6636","lon":"15.0774","name":"Hodkovice","flights":"526"},{"id":"21064x17801","lat":"40.5072","lon":"44.5027","name":"Teghenis","flights":"43"},{"id":"24368x3707","lat":"46.8608","lon":"9.2676","name":"Naraus-1870","flights":"350"},{"id":"24322x5260","lat":"46.7728","lon":"13.1492","name":"Emberger Alm","flights":"28824"},{"id":"20720x11696","lat":"39.8465","lon":"29.2409","name":"Kirani\ufffdIklar K\ufffdY\ufffd","flights":"2"},{"id":"24147x2918","lat":"46.4371","lon":"7.2938","name":"Wispile","flights":"994"},{"id":"21447x393","lat":"41.244","lon":"0.9836","name":"Castillejos","flights":"314"},{"id":"22958x3027","lat":"44.1506","lon":"7.5682","name":"Colle Di Tenda","flights":"65"},{"id":"24396x4759","lat":"46.9149","lon":"11.8977","name":"Speikboden","flights":"4197"},{"id":"23707x3189","lat":"45.5905","lon":"7.9713","name":"Muanda","flights":"420"},{"id":"21777x-3088","lat":"41.8797","lon":"-7.7208","name":"Larouco Sul","flights":"783"},{"id":"23802x1186","lat":"45.7732","lon":"2.9648","name":"Puy De Dome","flights":"288"},{"id":"24618x3032","lat":"47.343","lon":"7.5799","name":"Hohe Winde","flights":"100"},{"id":"24285x3129","lat":"46.7024","lon":"7.8225","name":"Amisbuehl","flights":"1896"},{"id":"24262x3222","lat":"46.6574","lon":"8.0551","name":"Grindelwald","flights":"2043"},{"id":"23671x3123","lat":"45.5203","lon":"7.8076","name":"Cavallaria","flights":"769"},{"id":"22205x-113","lat":"42.701","lon":"-0.2836","name":"Panticosa","flights":"4"},{"id":"24198x3426","lat":"46.5349","lon":"8.5642","name":"Gottardo Alpe Fieud","flights":"31"},{"id":"24570x3004","lat":"47.2508","lon":"7.5101","name":"Weissenstein","flights":"2557"},{"id":"19868x9301","lat":"38.2072","lon":"23.2524","name":"Kithenonas","flights":"10780"},{"id":"24581x3024","lat":"47.2703","lon":"7.5609","name":"Niederwiler Stierenberg","flights":"2878"},{"id":"22546x5100","lat":"43.3568","lon":"12.7496","name":"Monte Cucco","flights":"2192"},{"id":"25225x5528","lat":"48.5089","lon":"13.8199","name":"Pfarkirchen West","flights":"183"},{"id":"24636x3069","lat":"47.3762","lon":"7.6735","name":"Hohwacht","flights":"145"},{"id":"24051x5536","lat":"46.2523","lon":"13.8404","name":"Vogel","flights":"1373"},{"id":"24062x5389","lat":"46.273","lon":"13.4732","name":"Kobari\u0161ki Stol","flights":"11059"},{"id":"23524x5873","lat":"45.2394","lon":"14.6831","name":"Tribalj","flights":"4107"},{"id":"24164x4395","lat":"46.4696","lon":"10.9871","name":"Malga Val","flights":"17"},{"id":"24255x3060","lat":"46.6442","lon":"7.6489","name":"Niesen","flights":"2556"},{"id":"7490x-36213","lat":"14.4032","lon":"-90.5325","name":"St. Elena Barillas","flights":"224"},{"id":"7593x-36337","lat":"14.6023","lon":"-90.8423","name":"San Andres Itzapa","flights":"45"},{"id":"27727x-692","lat":"53.3209","lon":"-1.73","name":"Bradwell","flights":"316"},{"id":"29209x9673","lat":"56.171","lon":"24.1815","name":"Va Kai","flights":"1"},{"id":"24184x2944","lat":"46.5085","lon":"7.3591","name":"Rinderberg-2000","flights":"204"},{"id":"24357x3366","lat":"46.8405","lon":"8.415","name":"Brunni - Engelberg","flights":"2529"},{"id":"26391x5636","lat":"50.7514","lon":"14.0912","name":"J\u00edlov\u00e9 U D\u011b\u010d\u00edna","flights":"306"},{"id":"25855x5374","lat":"49.7217","lon":"13.435","name":"Koterov","flights":"137"},{"id":"24506x2819","lat":"47.1267","lon":"7.047","name":"Chasseral","flights":"379"},{"id":"24287x3520","lat":"46.7063","lon":"8.8002","name":"Disentis","flights":"796"},{"id":"24391x3364","lat":"46.905","lon":"8.4095","name":"Br\u00e4ndlen","flights":"727"},{"id":"22380x5297","lat":"43.0393","lon":"13.2417","name":"Sarnano","flights":"993"},{"id":"26188x5268","lat":"50.3617","lon":"13.1704","name":"\u010cern\u00fd Vrch","flights":"292"},{"id":"23684x3150","lat":"45.5458","lon":"7.8751","name":"San Giacomo","flights":"992"},{"id":"31438x9460","lat":"60.457","lon":"23.651","name":"Efik","flights":"423"},{"id":"23833x3721","lat":"45.8328","lon":"9.302","name":"Cornizzolo","flights":"5920"},{"id":"24136x3243","lat":"46.4161","lon":"8.1071","name":"Fiesch","flights":"12818"},{"id":"23618x2468","lat":"45.4198","lon":"6.1705","name":"Val Pelouse","flights":"89"},{"id":"23687x2442","lat":"45.5528","lon":"6.1049","name":"Montlambert","flights":"1413"},{"id":"32978x11249","lat":"63.4197","lon":"28.123","name":"Efra","flights":"239"},{"id":"21903x730","lat":"42.1214","lon":"1.824","name":"Figuerassa","flights":"1409"},{"id":"24732x4312","lat":"47.5608","lon":"10.78","name":"Tegelberg","flights":"5958"},{"id":"24361x4685","lat":"46.8477","lon":"11.7119","name":"Weitental Oberhofer","flights":"86"},{"id":"24429x3302","lat":"46.9794","lon":"8.2553","name":"Pilatus Kulm","flights":"434"},{"id":"23887x2740","lat":"45.9365","lon":"6.8512","name":"Chamonix","flights":"1621"},{"id":"25952x6424","lat":"49.9079","lon":"16.0601","name":"Srbce","flights":"281"},{"id":"21652x5707","lat":"41.6383","lon":"14.2675","name":"Miranda","flights":"449"},{"id":"23994x3386","lat":"46.1429","lon":"8.46622","name":"Trubbio","flights":"5"},{"id":"21627x5183","lat":"41.591","lon":"12.9572","name":"Norma","flights":"9776"},{"id":"23382x10187","lat":"44.9645","lon":"25.4676","name":"Viforata, Ta...","flights":"82"},{"id":"24177x3060","lat":"46.4947","lon":"7.6504","name":"Allmenalp - Kandersteg","flights":"176"},{"id":"16818x20415","lat":"32.3424","lon":"51.0368","name":"Rokh","flights":"1518"},{"id":"24014x5512","lat":"46.1808","lon":"13.7795","name":"Kobala","flights":"18298"},{"id":"24680x5318","lat":"47.4609","lon":"13.295","name":"Bischling","flights":"7128"},{"id":"23712x3186","lat":"45.5999","lon":"7.9645","name":"Muanda","flights":"75"},{"id":"24384x4448","lat":"46.8928","lon":"11.1207","name":"Timelsjoch Pass","flights":"4"},{"id":"23617x3057","lat":"45.4181","lon":"7.6422","name":"Santa Elisabetta","flights":"3049"},{"id":"24419x3595","lat":"46.9597","lon":"8.9874","name":"Braunwald","flights":"713"},{"id":"24024x3515","lat":"46.2","lon":"8.788","name":"Cimetta","flights":"1771"},{"id":"21959x530","lat":"42.2285","lon":"1.3243","name":"Organya","flights":"657"},{"id":"24143x5372","lat":"46.4293","lon":"13.4304","name":"Monte Cimone-Strma Pec","flights":"76"},{"id":"24585x4912","lat":"47.2791","lon":"12.2807","name":"Wildkogel","flights":"1572"},{"id":"24364x4675","lat":"46.8538","lon":"11.6883","name":"Gitschberg","flights":"166"},{"id":"24375x5115","lat":"46.8755","lon":"12.7876","name":"Steinermandl","flights":"1346"},{"id":"24539x3630","lat":"47.1897","lon":"9.0746","name":"H\u00fcsliberg","flights":"948"},{"id":"24020x4941","lat":"46.1918","lon":"12.3523","name":"Pieve Di Alpago","flights":"2433"},{"id":"24430x3767","lat":"46.9809","lon":"9.4182","name":"Pizol","flights":"167"},{"id":"24320x5291","lat":"46.7683","lon":"13.2269","name":"Rottenstein","flights":"722"},{"id":"24315x5383","lat":"46.7595","lon":"13.4581","name":"Goldeck","flights":"632"},{"id":"24425x2351","lat":"46.9715","lon":"5.8774","name":"Poupet Nord","flights":"410"},{"id":"24435x5031","lat":"46.9899","lon":"12.5768","name":"Goldried","flights":"265"},{"id":"24039x3011","lat":"46.2293","lon":"7.5284","name":"Cr\u00eat Du Midi","flights":"1626"},{"id":"24055x3011","lat":"46.2594","lon":"7.52855","name":"Bella Lui Crans-Montana","flights":"393"},{"id":"23685x4114","lat":"45.5484","lon":"10.286","name":"Monte Maddalena","flights":"870"},{"id":"20152x6482","lat":"38.7545","lon":"16.2058","name":"Pizzo Calabro","flights":"522"},{"id":"13519x39941","lat":"25.9986","lon":"99.8535","name":"Chuxiong","flights":"21"},{"id":"23790x2902","lat":"45.7491","lon":"7.2551","name":"Turaz","flights":"33"},{"id":"23739x4326","lat":"45.6515","lon":"10.815","name":"Monte Baldo East","flights":"693"},{"id":"24559x3896","lat":"47.2282","lon":"9.7394","name":"Schnifis","flights":"1486"},{"id":"24588x3764","lat":"47.2843","lon":"9.4106","name":"Ebenalp","flights":"3273"},{"id":"23826x4705","lat":"45.8195","lon":"11.7633","name":"Bassano","flights":"4755"},{"id":"24056x6293","lat":"46.2615","lon":"15.7313","name":"Dona\u010dka Gora","flights":"5747"},{"id":"24015x6082","lat":"46.1822","lon":"15.2056","name":"Mali\u010d","flights":"6230"},{"id":"24040x5604","lat":"46.2306","lon":"14.0092","name":"Sorica","flights":"2196"},{"id":"24000x6190","lat":"46.1529","lon":"15.4741","name":"\u017dusem","flights":"11"},{"id":"23901x5489","lat":"45.9636","lon":"13.7233","name":"Lijak","flights":"30394"},{"id":"23861x5584","lat":"45.8866","lon":"13.9589","name":"Kovk","flights":"8329"},{"id":"24067x5810","lat":"46.282","lon":"14.5249","name":"Ambro\u017e Zg.","flights":"5712"},{"id":"24063x5812","lat":"46.2746","lon":"14.5288","name":"Ambro\u017e","flights":"659"},{"id":"23620x5599","lat":"45.4236","lon":"13.9982","name":"Buzet Raspadalica","flights":"1778"},{"id":"24074x5811","lat":"46.2964","lon":"14.528","name":"Krvavec sp.","flights":"1679"},{"id":"23744x6072","lat":"45.6611","lon":"15.1806","name":"Smuk","flights":"3120"},{"id":"23872x5740","lat":"45.9081","lon":"14.3496","name":"Zavrh","flights":"1241"},{"id":"23806x5615","lat":"45.7801","lon":"14.0372","name":"Nanos - Hieronim","flights":"36"},{"id":"24242x6043","lat":"46.6196","lon":"15.1079","name":"Pernice","flights":"200"},{"id":"24189x6232","lat":"46.5162","lon":"15.58","name":"Pohorje","flights":"1557"},{"id":"24150x2790","lat":"46.4417","lon":"6.9759","name":"Jaman","flights":"555"},{"id":"23823x2499","lat":"45.8143","lon":"6.2467","name":"Annecy Montmin","flights":"9500"},{"id":"23955x6113","lat":"46.0669","lon":"15.2833","name":"Lisca","flights":"4041"},{"id":"24113x5705","lat":"46.3714","lon":"14.2624","name":"Dobr\u010da","flights":"1367"},{"id":"24119x5677","lat":"46.3829","lon":"14.1928","name":"Sv. Peter","flights":"1417"},{"id":"24113x5968","lat":"46.3703","lon":"14.9209","name":"Golte - Planica","flights":"2050"},{"id":"24083x5929","lat":"46.3143","lon":"14.8216","name":"Florjan - Gornji Grad","flights":"61"},{"id":"23814x5604","lat":"45.7963","lon":"14.0089","name":"Nanos - \u0160embijska Bajta","flights":"11"},{"id":"24081x5897","lat":"46.3098","lon":"14.7416","name":"Lepenatka","flights":"44"},{"id":"23669x5759","lat":"45.5178","lon":"14.3967","name":"Goljak","flights":"585"},{"id":"24097x5733","lat":"46.3396","lon":"14.3313","name":"Gozd","flights":"12696"},{"id":"24021x5503","lat":"46.1936","lon":"13.758","name":"Kobala","flights":"68"},{"id":"23572x5467","lat":"45.3311","lon":"13.6679","name":"Ka\u0161telir","flights":"2700"},{"id":"23979x6070","lat":"46.1125","lon":"15.1761","name":"Kopitnik","flights":"2055"},{"id":"24075x6004","lat":"46.2974","lon":"15.0091","name":"Dobrovlje V","flights":"724"},{"id":"24094x6139","lat":"46.3347","lon":"15.3464","name":"Konji\u0161ka Gora","flights":"2483"},{"id":"22473x7011","lat":"43.215","lon":"17.5357","name":"Ljubu\u0161ki","flights":"404"},{"id":"24034x6050","lat":"46.2191","lon":"15.126","name":"Hom - Prebold","flights":"403"},{"id":"23999x6196","lat":"46.1519","lon":"15.4911","name":"\u017dusem","flights":"959"},{"id":"24103x5733","lat":"46.3514","lon":"14.3322","name":"Kri\u0161ka Gora","flights":"2946"},{"id":"22518x6821","lat":"43.3031","lon":"17.0522","name":"Biokovo Pr\u017einovac","flights":"120"},{"id":"24072x6003","lat":"46.2923","lon":"15.0078","name":"Dobrovlje J","flights":"676"},{"id":"24073x5550","lat":"46.2946","lon":"13.8755","name":"Vogar","flights":"648"},{"id":"24106x5392","lat":"46.3579","lon":"13.4789","name":"Kanin","flights":"142"},{"id":"24029x5425","lat":"46.2098","lon":"13.5626","name":"Matajur","flights":"31"},{"id":"22776x2782","lat":"43.8004","lon":"6.9559","name":"Greolieres - Mnt. Cheiron","flights":"846"},{"id":"24103x5734","lat":"46.3523","lon":"14.3345","name":"Kri\u0161ka Gora sever","flights":"337"},{"id":"23763x5610","lat":"45.6986","lon":"14.0257","name":"Vrem\u0161\u010dica sp.","flights":"672"},{"id":"24182x5518","lat":"46.5041","lon":"13.7957","name":"Kranjska Gora - Jug","flights":"342"},{"id":"22093x7427","lat":"42.487","lon":"18.5684","name":"Herceg Novi","flights":"476"},{"id":"24028x5427","lat":"46.2086","lon":"13.5674","name":"Matajur - Mrzli vrh","flights":"475"},{"id":"24145x5456","lat":"46.4328","lon":"13.6403","name":"Mangrt - Sedlo","flights":"689"},{"id":"24102x6071","lat":"46.3508","lon":"15.1767","name":"Vinska Gora","flights":"906"},{"id":"23631x5586","lat":"45.4445","lon":"13.965","name":"Buzet Zavoj","flights":"2507"},{"id":"24138x5665","lat":"46.419","lon":"14.1635","name":"Zabrezka Planina","flights":"622"},{"id":"22548x8307","lat":"43.3612","lon":"20.7687","name":"Kokorovac","flights":"349"},{"id":"22545x8837","lat":"43.3564","lon":"22.0926","name":"Si\u0107evo - Relej","flights":"198"},{"id":"23936x5447","lat":"46.0302","lon":"13.6171","name":"Kuuk","flights":"478"},{"id":"24059x5466","lat":"46.2664","lon":"13.6653","name":"Krn","flights":"31"},{"id":"24178x4702","lat":"46.4966","lon":"11.755","name":"Col Rodella - E","flights":"6530"},{"id":"24022x5448","lat":"46.1952","lon":"13.6198","name":"Liv\u0161ki Kuk","flights":"476"},{"id":"24005x5596","lat":"46.1636","lon":"13.9924","name":"Vr\u0161e zg. - Cerkno","flights":"268"},{"id":"24375x5360","lat":"46.8751","lon":"13.3993","name":"Goeriach","flights":"242"},{"id":"23883x5544","lat":"45.9287","lon":"13.8589","name":"\u010caven","flights":"457"},{"id":"24043x5638","lat":"46.2362","lon":"14.0942","name":"Ratitovec","flights":"775"},{"id":"23908x5479","lat":"45.9776","lon":"13.697","name":"Lijak","flights":"16"},{"id":"23892x5510","lat":"45.9457","lon":"13.775","name":"Vitovlje -Rampa","flights":"590"},{"id":"23804x6019","lat":"45.7775","lon":"15.0491","name":"Stra\u0161ki Hrib","flights":"566"},{"id":"24194x6050","lat":"46.5266","lon":"15.1239","name":"Kremzarica","flights":"320"},{"id":"24194x6052","lat":"46.5275","lon":"15.129","name":"Kremzarica","flights":"59"},{"id":"24741x5210","lat":"47.5795","lon":"13.0247","name":"Jenner","flights":"821"},{"id":"24647x3978","lat":"47.399","lon":"9.945","name":"Niedere","flights":"2584"},{"id":"23945x5602","lat":"46.0475","lon":"14.0039","name":"Jelenk","flights":"216"},{"id":"24193x6234","lat":"46.5241","lon":"15.5838","name":"Pohorje","flights":"36"},{"id":"24054x5668","lat":"46.2586","lon":"14.1711","name":"Dra\u017ego\u0161ka Gora","flights":"236"},{"id":"24050x5675","lat":"46.2503","lon":"14.1874","name":"Lajse","flights":"52"},{"id":"24010x6043","lat":"46.1729","lon":"15.1068","name":"Kal - Z","flights":"225"},{"id":"24019x6040","lat":"46.19","lon":"15.1008","name":"Mrzlica","flights":"736"},{"id":"24005x6044","lat":"46.1643","lon":"15.1096","name":"Kal","flights":"373"},{"id":"22804x2507","lat":"43.8535","lon":"6.2664","name":"Moustiers Ste Marie","flights":"222"},{"id":"23848x4722","lat":"45.8616","lon":"11.8042","name":"Bassano","flights":"3562"},{"id":"24053x5666","lat":"46.2557","lon":"14.1645","name":"Dra\u017ego\u0161e","flights":"359"},{"id":"22248x5300","lat":"42.7854","lon":"13.2511","name":"Castelluccio W","flights":"486"},{"id":"24107x5965","lat":"46.3596","lon":"14.9128","name":"Golte Korte","flights":"38"},{"id":"24065x6237","lat":"46.2788","lon":"15.5921","name":"Bo\u010d - J","flights":"172"},{"id":"23978x6073","lat":"46.1111","lon":"15.1833","name":"Kopitnik","flights":"105"},{"id":"24053x6293","lat":"46.2565","lon":"15.7317","name":"Podno\u017eje Dona\u010dke Gore","flights":"86"},{"id":"24016x6358","lat":"46.1853","lon":"15.896","name":"Strahinj\u010dica Jug","flights":"614"},{"id":"23812x4666","lat":"45.7926","lon":"11.666","name":"Bassano","flights":"1035"},{"id":"24067x6405","lat":"46.2818","lon":"16.0126","name":"Ravna Gora - Sjever","flights":"757"},{"id":"24046x6110","lat":"46.2426","lon":"15.2741","name":"Golovec \u0161olski teren","flights":"9"},{"id":"23246x6328","lat":"44.7047","lon":"15.8197","name":"Bjelopolje","flights":"908"},{"id":"24100x5959","lat":"46.3468","lon":"14.8982","name":"Golte Borseka","flights":"292"},{"id":"24013x6007","lat":"46.1797","lon":"15.018","name":"Sv. Planina","flights":"322"},{"id":"21296x8325","lat":"40.9547","lon":"20.812","name":"Ohrid","flights":"721"},{"id":"24061x6394","lat":"46.2714","lon":"15.984","name":"Ravna Gora","flights":"2501"},{"id":"24020x5988","lat":"46.1914","lon":"14.9692","name":"\u010cemseniska","flights":"1"},{"id":"22760x2501","lat":"43.7694","lon":"6.2535","name":"Verdon - Aiguines","flights":"18"},{"id":"21498x8503","lat":"41.343","lon":"21.2566","name":"Me\u010dkin Kamen - Kru\u0161evo","flights":"5098"},{"id":"24076x5815","lat":"46.2997","lon":"14.5363","name":"Krvavec","flights":"830"},{"id":"24069x5815","lat":"46.2868","lon":"14.5368","name":"Kr\u017ei\u0161e","flights":"165"},{"id":"22509x8802","lat":"43.2865","lon":"22.0053","name":"Niska Banja","flights":"184"},{"id":"21497x8502","lat":"41.3398","lon":"21.2554","name":"Me\u010dkin kamen - Kru\u0161evo zahod","flights":"679"},{"id":"24009x5671","lat":"46.1703","lon":"14.1778","name":"Stari Vrh","flights":"414"},{"id":"24097x5744","lat":"46.34","lon":"14.3592","name":"Gozd","flights":"5"},{"id":"24095x5767","lat":"46.3369","lon":"14.4172","name":"Kali\u0161\u010de","flights":"5"},{"id":"23822x4698","lat":"45.8118","lon":"11.7451","name":"Bassano Costalunga","flights":"2833"},{"id":"24083x5582","lat":"46.3127","lon":"13.9557","name":"Podjelje","flights":"162"},{"id":"24074x5560","lat":"46.2953","lon":"13.9001","name":"Studor","flights":"116"},{"id":"24085x5571","lat":"46.3054","lon":"13.9255","name":"\u0160ipnca","flights":"53"},{"id":"24092x5615","lat":"46.3312","lon":"14.0372","name":"Galetovec","flights":"25"},{"id":"24059x5562","lat":"46.2673","lon":"13.9058","name":"Slovenia","flights":"3"},{"id":"24115x5699","lat":"46.3758","lon":"14.2463","name":"Dobr\u010da - ko\u010da","flights":"24"},{"id":"24090x5540","lat":"46.3273","lon":"13.8506","name":"Planina Krstenica","flights":"1"},{"id":"23987x5607","lat":"46.1288","lon":"14.0181","name":"\u0160kofje","flights":"211"},{"id":"24003x5599","lat":"46.1594","lon":"13.9972","name":"Vr\u0161e - Cerkno","flights":"206"},{"id":"23987x5609","lat":"46.1297","lon":"14.0214","name":"\u0160kofje 2","flights":"78"},{"id":"23761x5613","lat":"45.6948","lon":"14.0333","name":"Vremscica zg.","flights":"440"},{"id":"24060x5384","lat":"46.2695","lon":"13.4593","name":"Kobariski Stol","flights":"306"},{"id":"23835x5682","lat":"45.8374","lon":"14.2057","name":"Strmca","flights":"633"},{"id":"23965x5012","lat":"46.0872","lon":"12.5302","name":"Piancavallo","flights":"1255"},{"id":"24183x4704","lat":"46.5067","lon":"11.7596","name":"Rifugio Carlo Valentini","flights":"28"},{"id":"24102x5408","lat":"46.3498","lon":"13.5199","name":"Planja Nad Bovcem","flights":"181"},{"id":"23887x5556","lat":"45.937","lon":"13.8896","name":"Slovenia","flights":"7"},{"id":"24067x5452","lat":"46.2831","lon":"13.6297","name":"Na Plec","flights":"57"},{"id":"23980x5640","lat":"46.1149","lon":"14.1006","name":"Slajka","flights":"617"},{"id":"23607x5818","lat":"45.3978","lon":"14.5446","name":"Grobnik","flights":"368"},{"id":"23950x5489","lat":"46.0577","lon":"13.7228","name":"Slovenia","flights":"1"},{"id":"24025x5519","lat":"46.2014","lon":"13.7969","name":"Kobala","flights":"13"},{"id":"23921x5621","lat":"46.0014","lon":"14.0525","name":"Gore","flights":"108"},{"id":"24028x5487","lat":"46.2076","lon":"13.718","name":"Vodel Vrh","flights":"75"},{"id":"23864x5631","lat":"45.8928","lon":"14.0786","name":"Javornik","flights":"198"},{"id":"23836x5696","lat":"45.8392","lon":"14.2403","name":"Grmada","flights":"501"},{"id":"23810x5763","lat":"45.7886","lon":"14.4064","name":"Slivnica","flights":"1240"},{"id":"23965x5600","lat":"46.087","lon":"13.9994","name":"Bevkov Vrh","flights":"129"},{"id":"23948x5597","lat":"46.0529","lon":"13.9928","name":"Jelenk-Vrh","flights":"22"},{"id":"23868x5614","lat":"45.9003","lon":"14.0351","name":"Strmec Malo Polje","flights":"54"},{"id":"22732x6862","lat":"43.7151","lon":"17.1552","name":"Stipanjici","flights":"7"},{"id":"23995x5684","lat":"46.1444","lon":"14.2102","name":"Gabr\u0161ka Gora","flights":"64"},{"id":"24014x6451","lat":"46.1817","lon":"16.1273","name":"Ivan\u0161\u010dica","flights":"2278"},{"id":"23842x5567","lat":"45.8496","lon":"13.9169","name":"Planina","flights":"27"},{"id":"23953x5564","lat":"46.0637","lon":"13.9107","name":"Vrhovec","flights":"3"},{"id":"22751x6865","lat":"43.7525","lon":"17.1634","name":"Jelinovac","flights":"9"},{"id":"22738x6894","lat":"43.7271","lon":"17.234","name":"Tomislavgrad","flights":"2"},{"id":"23948x5627","lat":"46.053","lon":"14.0675","name":"Mrzli Vrh \u017diri","flights":"107"},{"id":"22683x6998","lat":"43.6205","lon":"17.4951","name":"Blidinje","flights":"4"},{"id":"24006x5646","lat":"46.1651","lon":"14.1143","name":"Blego\u0161","flights":"142"},{"id":"17004x-6851","lat":"32.7005","lon":"-17.1283","name":"Canhas","flights":"603"},{"id":"23989x5503","lat":"46.1329","lon":"13.7584","name":"Cukla - Most na Soci","flights":"4"},{"id":"22238x5270","lat":"42.7659","lon":"13.1758","name":"Castelluccio W","flights":"435"},{"id":"24040x5123","lat":"46.2304","lon":"12.8072","name":"Monte Valinis","flights":"4209"},{"id":"23937x5618","lat":"46.0333","lon":"14.0443","name":"Ledinsko Razpotje","flights":"2"},{"id":"24176x4699","lat":"46.4931","lon":"11.7486","name":"Col Rodella - S","flights":"3576"},{"id":"22860x6912","lat":"43.9612","lon":"17.2794","name":"Kupres","flights":"9"},{"id":"23104x6146","lat":"44.4307","lon":"15.3656","name":"Visocica","flights":"130"},{"id":"22720x6859","lat":"43.6927","lon":"17.1485","name":"Stipanjii","flights":"1"},{"id":"22654x5431","lat":"43.5653","lon":"13.5776","name":"Monte Conero","flights":"345"},{"id":"23986x5637","lat":"46.1271","lon":"14.0926","name":"Makovci","flights":"21"},{"id":"24319x4959","lat":"46.7674","lon":"12.3976","name":"Thurntaler","flights":"572"},{"id":"17008x-6766","lat":"32.7068","lon":"-16.9138","name":"Chao De Lagoa","flights":"875"},{"id":"21526x8616","lat":"41.396","lon":"21.5389","name":"Treskavec S","flights":"5"},{"id":"23833x5685","lat":"45.8335","lon":"14.2131","name":"Petri\u010dev Hrib","flights":"34"},{"id":"22713x6937","lat":"43.6787","lon":"17.3413","name":"Lipa","flights":"3"},{"id":"17041x-6894","lat":"32.7707","lon":"-17.2339","name":"Faja de Ovelha","flights":"31"},{"id":"23877x5744","lat":"45.918","lon":"14.3594","name":"Borovnica","flights":"10"},{"id":"21448x8631","lat":"41.2469","lon":"21.5764","name":"Sliva","flights":"95"},{"id":"23972x5641","lat":"46.1001","lon":"14.1027","name":"Podgora","flights":"6"},{"id":"24137x5445","lat":"46.4175","lon":"13.6114","name":"Strmec pod Predelom","flights":"34"},{"id":"22791x6657","lat":"43.829","lon":"16.6429","name":"Greda","flights":"838"},{"id":"24017x5515","lat":"46.186","lon":"13.7883","name":"Kobala","flights":"89"},{"id":"23938x5570","lat":"46.0337","lon":"13.926","name":"Rovtarjev Vrh","flights":"2"},{"id":"23912x5597","lat":"45.9847","lon":"13.9937","name":"Gore","flights":"1"},{"id":"22699x6924","lat":"43.6514","lon":"17.3106","name":"Lib","flights":"14"},{"id":"22763x6860","lat":"43.7748","lon":"17.15","name":"Unknown","flights":"1"},{"id":"17064x-6857","lat":"32.8157","lon":"-17.1422","name":"Fanal","flights":"6"},{"id":"22244x5272","lat":"42.7767","lon":"13.1804","name":"Castelluccio","flights":"52"},{"id":"24147x5459","lat":"46.4357","lon":"13.6465","name":"Jare\u010dca","flights":"12"},{"id":"24002x5501","lat":"46.1586","lon":"13.7537","name":"Unknown","flights":"5"},{"id":"22735x6840","lat":"43.7218","lon":"17.1005","name":"Tu\u0161nica","flights":"5"},{"id":"23736x5683","lat":"45.6469","lon":"14.2069","name":"\u0160ilentabor","flights":"16"},{"id":"21503x8526","lat":"41.3522","lon":"21.3159","name":"Krivogasteni","flights":"6"},{"id":"23826x5455","lat":"45.819","lon":"13.625","name":"Brestovica","flights":"196"},{"id":"22691x6926","lat":"43.6362","lon":"17.3152","name":"Bor\u010dani","flights":"6"},{"id":"-15953x60245","lat":"-30.6791","lon":"150.612","name":"Mt. Borah Avstralija","flights":"5647"},{"id":"14635x-6694","lat":"28.1446","lon":"-16.7362","name":"Taucho","flights":"2480"},{"id":"23877x5565","lat":"45.9173","lon":"13.9128","name":"Otli\u0161ko Okno","flights":"50"},{"id":"22693x6995","lat":"43.6407","lon":"17.4883","name":"Blidinje","flights":"2"},{"id":"17062x-6856","lat":"32.8112","lon":"-17.1392","name":"Fanal -Madeira Island","flights":"82"},{"id":"-17517x60524","lat":"-33.6872","lon":"151.309","name":"Manley","flights":"57"},{"id":"22697x6887","lat":"43.6476","lon":"17.217","name":"Mrkodol","flights":"1"},{"id":"22842x6466","lat":"43.926","lon":"16.1653","name":"Promina","flights":"43"},{"id":"24095x5401","lat":"46.3367","lon":"13.5037","name":"Planja Nad Bovcem","flights":"5"},{"id":"24184x4709","lat":"46.5084","lon":"11.7721","name":"Passo Sella","flights":"485"},{"id":"-17796x60399","lat":"-34.224","lon":"150.997","name":"Stanwell Park","flights":"635"},{"id":"23767x5807","lat":"45.7056","lon":"14.5176","name":"Racna Gora","flights":"145"},{"id":"22736x6837","lat":"43.7229","lon":"17.0933","name":"Tusnica","flights":"1"},{"id":"23685x5725","lat":"45.5481","lon":"14.3122","name":"Srednji Vrh","flights":"28"},{"id":"22222x7350","lat":"42.7351","lon":"18.3739","name":"Leotar-Gljiva","flights":"114"},{"id":"24321x4956","lat":"46.7706","lon":"12.3892","name":"Thurntaler","flights":"1731"},{"id":"23790x5678","lat":"45.7503","lon":"14.1947","name":"Letali\u0161\u010de Postojna","flights":"33"},{"id":"23840x5520","lat":"45.8455","lon":"13.801","name":"Govc","flights":"86"},{"id":"23699x5545","lat":"45.5752","lon":"13.8615","name":"Osp","flights":"51"},{"id":"-17137x60698","lat":"-32.9556","lon":"151.746","name":"Merewether Heights","flights":"29"},{"id":"24065x5447","lat":"46.2779","lon":"13.6176","name":"Na Rejdi","flights":"44"},{"id":"24016x5478","lat":"46.1839","lon":"13.6955","name":"Spodnje Vrse","flights":"73"},{"id":"23995x5551","lat":"46.1451","lon":"13.8784","name":"Bukovski Vrh","flights":"1"},{"id":"24144x5670","lat":"46.431","lon":"14.1744","name":"Stol","flights":"253"},{"id":"24173x5597","lat":"46.4858","lon":"13.9917","name":"Dovska Baba","flights":"182"},{"id":"24139x5668","lat":"46.4221","lon":"14.1691","name":"Zabrezka Planina - Plazi\u0161\u010de","flights":"32"},{"id":"24113x5703","lat":"46.3707","lon":"14.2579","name":"Dobr\u010da","flights":"22"},{"id":"24103x5736","lat":"46.3526","lon":"14.341","name":"Kri\u0161ka Gora Bla\u017eun","flights":"969"},{"id":"24147x5651","lat":"46.4361","lon":"14.128","name":"Olipova Planina","flights":"12"},{"id":"24150x5660","lat":"46.4427","lon":"14.1498","name":"Vajne\u017e","flights":"14"},{"id":"24134x5635","lat":"46.4106","lon":"14.0865","name":"Vr\u0161e - Ko\u010dna","flights":"3"},{"id":"24117x5701","lat":"46.3797","lon":"14.2522","name":"Dobr\u010da","flights":"1"},{"id":"24106x5560","lat":"46.3585","lon":"13.8994","name":"Visevnik","flights":"6"},{"id":"24119x5685","lat":"46.3836","lon":"14.2125","name":"Jamarski vrh","flights":"9"},{"id":"24166x5648","lat":"46.4731","lon":"14.1199","name":"Struska Veliki Vrh","flights":"4"},{"id":"24123x5573","lat":"46.3907","lon":"13.933","name":"Debela Pec","flights":"13"},{"id":"24140x5670","lat":"46.4224","lon":"14.1757","name":"Stol polica","flights":"13"},{"id":"24107x5707","lat":"46.3594","lon":"14.2679","name":"Viso\u010de","flights":"11"},{"id":"24134x5664","lat":"46.4118","lon":"14.16","name":"Smolnik","flights":"16"},{"id":"24176x5626","lat":"46.4925","lon":"14.0642","name":"Golica","flights":"9"},{"id":"23982x5918","lat":"46.1187","lon":"14.7958","name":"Zapodje","flights":"248"},{"id":"23984x5935","lat":"46.1225","lon":"14.8373","name":"Reber","flights":"32"},{"id":"24491x4530","lat":"47.0973","lon":"11.324","name":"Elfer Stubaital","flights":"3391"},{"id":"23180x-490","lat":"44.5762","lon":"-1.2259","name":"Dune Du Pyla","flights":"230"},{"id":"21435x9595","lat":"41.2217","lon":"23.988","name":"Petrousa","flights":"1670"},{"id":"22097x5159","lat":"42.4941","lon":"12.8974","name":"Poggio Bustone","flights":"269"},{"id":"19741x11702","lat":"37.9637","lon":"29.2556","name":"Pamukkale","flights":"1422"},{"id":"24532x4727","lat":"47.1763","lon":"11.8168","name":"Penken","flights":"626"},{"id":"24034x5478","lat":"46.2188","lon":"13.6951","name":"Mrzli Vrh","flights":"60"},{"id":"23983x6081","lat":"46.1217","lon":"15.203","name":"Jelenka","flights":"44"},{"id":"24282x6496","lat":"46.6953","lon":"16.2404","name":"Moravske T.","flights":"19"},{"id":"24481x4239","lat":"47.0783","lon":"10.5982","name":"Sch\u00f6njoch","flights":"350"},{"id":"24018x5985","lat":"46.1894","lon":"14.9628","name":"\u010cemseniska","flights":"19"},{"id":"23378x5896","lat":"44.9573","lon":"14.7394","name":"Ba\u0161ka - Titov \u0160tart","flights":"41"},{"id":"23925x5993","lat":"46.0093","lon":"14.9835","name":"Morav\u0161ka Gora","flights":"479"},{"id":"21997x7556","lat":"42.3014","lon":"18.8908","name":"Budva","flights":"376"},{"id":"24091x5776","lat":"46.328","lon":"14.4411","name":"Zaplata","flights":"911"},{"id":"24168x5504","lat":"46.4765","lon":"13.7603","name":"Vitranc","flights":"52"},{"id":"24346x5083","lat":"46.8183","lon":"12.7075","name":"Hochstein","flights":"348"},{"id":"24148x5453","lat":"46.4386","lon":"13.6314","name":"Mangrt - Prhodc","flights":"95"},{"id":"24230x4690","lat":"46.5966","lon":"11.7243","name":"Seceda","flights":"76"},{"id":"24671x4705","lat":"47.444","lon":"11.7635","name":"Achensee","flights":"454"},{"id":"23575x5531","lat":"45.3366","lon":"13.8276","name":"Motovun","flights":"419"},{"id":"23943x6104","lat":"46.0443","lon":"15.2604","name":"Kompolje","flights":"3"},{"id":"24144x5724","lat":"46.4307","lon":"14.3096","name":"Ko\u0161uta - Veliki Vrh","flights":"31"},{"id":"24066x5864","lat":"46.2808","lon":"14.6589","name":"V. Planina - Mala Planina","flights":"46"},{"id":"24141x4817","lat":"46.4246","lon":"12.0419","name":"Tofana","flights":"3"},{"id":"23403x5660","lat":"45.0062","lon":"14.1499","name":"Croatia","flights":"1"},{"id":"24117x5540","lat":"46.3798","lon":"13.8501","name":"Kredarica","flights":"22"},{"id":"24319x5097","lat":"46.767","lon":"12.7423","name":"Kuehbodentoerl","flights":"17"},{"id":"24316x5281","lat":"46.7608","lon":"13.2014","name":"Greinferburg- Solski","flights":"641"},{"id":"24768x4972","lat":"47.631","lon":"12.4309","name":"K\u00f6ssen","flights":"7606"},{"id":"24662x4678","lat":"47.4273","lon":"11.6962","name":"Machensee","flights":"478"},{"id":"24102x5815","lat":"46.3503","lon":"14.5387","name":"Ovnov \u010cer","flights":"15"},{"id":"23903x5900","lat":"45.9683","lon":"14.7492","name":"Vrh pri Vi\u0161nji Gori","flights":"135"},{"id":"19730x11654","lat":"37.9429","lon":"29.136","name":"Pofukkale","flights":"1300"},{"id":"24106x6136","lat":"46.3572","lon":"15.3392","name":"Mala Gora","flights":"1232"},{"id":"24048x5456","lat":"46.2453","lon":"13.6412","name":"Krn","flights":"11"},{"id":"22107x5155","lat":"42.5141","lon":"12.8868","name":"Poggio Bustone 2","flights":"3869"},{"id":"23898x5477","lat":"45.9583","lon":"13.6925","name":"Lijak","flights":"7"},{"id":"9912x-40036","lat":"19.0616","lon":"-100.09","name":"El Penon","flights":"13769"},{"id":"24363x5118","lat":"46.8528","lon":"12.7948","name":"Steinermandl","flights":"114"},{"id":"22528x8300","lat":"43.323","lon":"20.7492","name":"Jadovnik","flights":"302"},{"id":"22197x9900","lat":"42.6873","lon":"24.7497","name":"Sopot","flights":"5404"},{"id":"24543x6191","lat":"47.1988","lon":"15.4766","name":"Schoeckl","flights":"4622"},{"id":"2328x-30462","lat":"4.4764","lon":"-76.1539","name":"Roldanillo","flights":"2977"},{"id":"31003x3478","lat":"59.6219","lon":"8.6956","name":"Hjartdal","flights":"1736"},{"id":"24871x6416","lat":"47.8294","lon":"16.0411","name":"Hohe Wand","flights":"3050"},{"id":"26338x6296","lat":"50.6495","lon":"15.74","name":"Cerna Hora","flights":"4517"},{"id":"22736x2778","lat":"43.7228","lon":"6.944","name":"Gourdon","flights":"987"},{"id":"24325x5968","lat":"46.7786","lon":"14.921","name":"Wolfsberg","flights":"1236"},{"id":"-16832x-25976","lat":"-32.3695","lon":"-64.9391","name":"El Nido","flights":"598"},{"id":"25807x7451","lat":"49.6291","lon":"18.6273","name":"Javorov\u00fd","flights":"4383"},{"id":"25781x7062","lat":"49.5789","lon":"17.6781","name":"Uh\u0159\u00ednov","flights":"437"},{"id":"24281x5565","lat":"46.6944","lon":"13.912","name":"Gerlitzen","flights":"2562"},{"id":"23844x2489","lat":"45.8531","lon":"6.2226","name":"Talloires","flights":"5253"},{"id":"24149x6177","lat":"46.4405","lon":"15.4427","name":"Trije Kralji","flights":"37"},{"id":"25754x7265","lat":"49.5274","lon":"18.1622","name":"Velk\u00fd Javorn\u00edk","flights":"687"},{"id":"24189x5909","lat":"46.5182","lon":"14.7721","name":"Peca - Kon\u010dnikov vrh","flights":"235"},{"id":"24872x6419","lat":"47.83","lon":"16.0466","name":"Hohe Wand","flights":"1024"},{"id":"24559x6305","lat":"47.2283","lon":"15.7622","name":"Kulm","flights":"1207"},{"id":"24286x5854","lat":"46.7034","lon":"14.6348","name":"Wandelitzen","flights":"44"},{"id":"24106x6104","lat":"46.3579","lon":"15.2595","name":"Kam\u0161ak","flights":"312"},{"id":"24218x5761","lat":"46.5727","lon":"14.4022","name":"Radsberg","flights":"1649"},{"id":"-16851x-25974","lat":"-32.4052","lon":"-64.9338","name":"El Mirador De Los Condores","flights":"828"},{"id":"23828x4708","lat":"45.8234","lon":"11.7689","name":"Bassano","flights":"19222"},{"id":"24067x5349","lat":"46.2823","lon":"13.3724","name":"Kobariski Stol","flights":"10"},{"id":"23941x6199","lat":"46.0407","lon":"15.4969","name":"\u0160var\u010d - Senovo","flights":"168"},{"id":"23951x6221","lat":"46.0591","lon":"15.5527","name":"Veternik","flights":"120"},{"id":"23936x6055","lat":"46.0301","lon":"15.1374","name":"Slovenia","flights":"2"},{"id":"23868x5573","lat":"45.9084","lon":"13.9374","name":"Sinji vrh","flights":"27"},{"id":"24146x5672","lat":"46.4355","lon":"14.1805","name":"Stol","flights":"3"},{"id":"23987x5978","lat":"46.1294","lon":"14.9444","name":"Marela","flights":"63"},{"id":"24515x4523","lat":"47.1451","lon":"11.3078","name":"Kreuzjoch Stubaital","flights":"1909"},{"id":"23925x6190","lat":"46.0105","lon":"15.4762","name":"Slovenia","flights":"1"},{"id":"23988x5978","lat":"46.1307","lon":"14.9456","name":"Marela","flights":"23"},{"id":"23948x6204","lat":"46.0539","lon":"15.511","name":"Lipni Vrh - Veliki Kamen","flights":"5"},{"id":"23987x6097","lat":"46.1235","lon":"15.2299","name":"Jelenka","flights":"201"},{"id":"22525x5223","lat":"43.3172","lon":"13.0568","name":"Monte San Vicino","flights":"303"},{"id":"24042x6110","lat":"46.2222","lon":"15.2626","name":"Miklav\u017eki hrib","flights":"9"},{"id":"22588x6683","lat":"43.4324","lon":"16.7148","name":"Omis","flights":"23"},{"id":"24246x6501","lat":"46.6271","lon":"16.2529","name":"Gancani","flights":"18"},{"id":"23989x6088","lat":"46.1334","lon":"15.2211","name":"Plazovje","flights":"7"},{"id":"22475x5182","lat":"43.2204","lon":"12.9545","name":"Tre Pizzi","flights":"941"},{"id":"23986x6091","lat":"46.1278","lon":"15.2285","name":"Konc","flights":"45"},{"id":"24090x5757","lat":"46.3266","lon":"14.3924","name":"Sv. Lovrenc Pod Stor\u017ei\u010dem","flights":"288"},{"id":"24101x5762","lat":"46.348","lon":"14.4045","name":"Stor\u017ei\u010d","flights":"147"},{"id":"24063x5270","lat":"46.2743","lon":"13.1753","name":"Cuarnan","flights":"2705"},{"id":"23883x5530","lat":"45.9288","lon":"13.825","name":"Kucelj","flights":"44"},{"id":"23715x5548","lat":"45.6069","lon":"13.8693","name":"Socerb","flights":"524"},{"id":"24167x4721","lat":"46.4744","lon":"11.8021","name":"Belvedere - Mountain Station","flights":"198"},{"id":"23831x5832","lat":"45.8283","lon":"14.5805","name":"Sv. Primo\u017e","flights":"185"},{"id":"24104x5803","lat":"46.3541","lon":"14.5086","name":"Grintovec","flights":"2"},{"id":"24011x5505","lat":"46.1743","lon":"13.7621","name":"Kobala","flights":"46"},{"id":"24609x5093","lat":"47.3246","lon":"12.7326","name":"Schmittenhoehe Zell Am See","flights":"1003"},{"id":"24175x4722","lat":"46.4912","lon":"11.8059","name":"Passo Pordoi Zahod","flights":"6"},{"id":"19314x-1408","lat":"37.1424","lon":"-3.5194","name":"Canes De La Vega","flights":"1134"},{"id":"21527x8569","lat":"41.3986","lon":"21.4225","name":"Prilep - Dune De Pyla","flights":"68"},{"id":"24343x4109","lat":"46.8129","lon":"10.2732","name":"Scuol","flights":"1580"},{"id":"23683x5744","lat":"45.5451","lon":"14.3604","name":"\u0160estanov Vrh","flights":"24"},{"id":"23671x5753","lat":"45.5217","lon":"14.3835","name":"Oslice","flights":"13"},{"id":"23959x6056","lat":"46.0743","lon":"15.14","name":"Krize","flights":"19"},{"id":"23957x6070","lat":"46.0717","lon":"15.1753","name":"Prnov\u0161e","flights":"66"},{"id":"24080x5816","lat":"46.3077","lon":"14.5397","name":"Veliki Zvoh","flights":"283"},{"id":"23830x6204","lat":"45.827","lon":"15.5099","name":"Jap","flights":"1"},{"id":"23958x6085","lat":"46.0729","lon":"15.2137","name":"Kozi\u010dje","flights":"11"},{"id":"24180x6242","lat":"46.5008","lon":"15.6056","name":"Visocnik","flights":"122"},{"id":"24064x6234","lat":"46.2762","lon":"15.588","name":"Bo\u010d - Z","flights":"239"},{"id":"22256x5286","lat":"42.8003","lon":"13.2154","name":"Castelluccio","flights":"126"},{"id":"24089x6267","lat":"46.3255","lon":"15.6666","name":"Statenberg","flights":"104"},{"id":"24054x6284","lat":"46.2579","lon":"15.7088","name":"\u017detale Jv","flights":"30"},{"id":"24598x6192","lat":"47.3039","lon":"15.4792","name":"Passail","flights":"1192"},{"id":"23777x5709","lat":"45.7244","lon":"14.2722","name":"Sv. Trojica","flights":"18"},{"id":"22533x6803","lat":"43.3323","lon":"17.0073","name":"Biokovo Pr\u017einovac - Ni\u017eji","flights":"27"},{"id":"21511x7962","lat":"41.3681","lon":"19.904","name":"Dajti","flights":"220"},{"id":"24178x5520","lat":"46.4969","lon":"13.7994","name":"Robe","flights":"9"},{"id":"24006x6093","lat":"46.1656","lon":"15.2325","name":"La\u0161ko","flights":"18"},{"id":"22152x9314","lat":"42.6009","lon":"23.2844","name":"Goli Vrah","flights":"1524"},{"id":"24514x3818","lat":"47.1419","lon":"9.5443","name":"Bargella","flights":"323"},{"id":"23907x5897","lat":"45.9749","lon":"14.7426","name":"Gradi\u0161\u010de - Vi\u0161nja Gora","flights":"1122"},{"id":"23907x5696","lat":"45.9759","lon":"14.2399","name":"Ulovka","flights":"408"},{"id":"23901x5921","lat":"45.9638","lon":"14.8021","name":"Nograd","flights":"64"},{"id":"23885x5789","lat":"45.9324","lon":"14.4723","name":"Krim","flights":"198"},{"id":"23923x5891","lat":"46.0063","lon":"14.7273","name":"Mali Vrh - Trebeljevo","flights":"12"},{"id":"23921x5875","lat":"46.0018","lon":"14.6867","name":"Gorenja vas pri Polici","flights":"8"},{"id":"23938x5719","lat":"46.0346","lon":"14.2966","name":"Koreno","flights":"140"},{"id":"23784x6009","lat":"45.7377","lon":"15.0234","name":"Pogorelec","flights":"138"},{"id":"24049x5859","lat":"46.2489","lon":"14.6487","name":"Vover","flights":"157"},{"id":"23652x5567","lat":"45.4845","lon":"13.918","name":"Kuk Nad Movrazem","flights":"18"},{"id":"23941x5877","lat":"46.0397","lon":"14.6931","name":"Gabrski hrib pri Jan\u010dah","flights":"8"},{"id":"23641x5562","lat":"45.4628","lon":"13.9059","name":"Sv. Kvirik","flights":"80"},{"id":"23921x5912","lat":"46.0012","lon":"14.7794","name":"Obolno","flights":"8"},{"id":"23970x5781","lat":"46.0966","lon":"14.4534","name":"Sentviski Hrib","flights":"6"},{"id":"23547x5681","lat":"45.2835","lon":"14.2015","name":"Ucka","flights":"153"},{"id":"23842x5837","lat":"45.8509","lon":"14.5916","name":"Sv. Lovrenc - Osolnik","flights":"9"},{"id":"24082x5782","lat":"46.3122","lon":"14.4545","name":"Poto\u0161ka Gora","flights":"632"},{"id":"24175x5622","lat":"46.4912","lon":"14.0544","name":"Golica","flights":"11"},{"id":"24074x5859","lat":"46.2954","lon":"14.6473","name":"Velika Planina - Poljanski Rob","flights":"301"},{"id":"23801x5622","lat":"45.7706","lon":"14.054","name":"Nanos - Antena","flights":"97"},{"id":"23930x5942","lat":"46.0184","lon":"14.8562","name":"Bogensperk","flights":"8"},{"id":"24142x5855","lat":"46.4264","lon":"14.6386","name":"Logarska D.","flights":"109"},{"id":"23655x5515","lat":"45.4913","lon":"13.7879","name":"Glem","flights":"98"},{"id":"23854x6011","lat":"45.8722","lon":"15.0268","name":"\u0160mavr","flights":"1"},{"id":"23685x5555","lat":"45.5487","lon":"13.8887","name":"Mar\u010dev Hrib","flights":"30"},{"id":"23901x5897","lat":"45.9638","lon":"14.7415","name":"Vrh nad Vi\u0161njo Goro","flights":"6"},{"id":"23904x5769","lat":"45.9695","lon":"14.4222","name":"Sv. Ana","flights":"171"},{"id":"24170x5409","lat":"46.4813","lon":"13.522","name":"Sv. Visarje I","flights":"133"},{"id":"23642x5576","lat":"45.4651","lon":"13.9401","name":"Breg","flights":"39"},{"id":"23864x5910","lat":"45.892","lon":"14.776","name":"Krka","flights":"2"},{"id":"23837x5679","lat":"45.8398","lon":"14.1973","name":"Lipovec","flights":"24"},{"id":"24193x5491","lat":"46.5243","lon":"13.7273","name":"Tromeja","flights":"24"},{"id":"23919x6037","lat":"45.9983","lon":"15.0925","name":"Nebesa","flights":"24"},{"id":"24111x5955","lat":"46.3665","lon":"14.8885","name":"Golte - Medvedjak","flights":"103"},{"id":"24046x5721","lat":"46.242","lon":"14.3037","name":"Sv. Jost Nad Kranjem","flights":"21"},{"id":"24115x5761","lat":"46.3751","lon":"14.4023","name":"\u017deniklovec","flights":"57"},{"id":"23812x5998","lat":"45.7925","lon":"14.9958","name":"Ple\u0161ivica","flights":"43"},{"id":"24773x4970","lat":"47.6405","lon":"12.4245","name":"Unterberghorn","flights":"171"},{"id":"24139x5693","lat":"46.4214","lon":"14.2315","name":"Begunjscica","flights":"81"},{"id":"23741x6036","lat":"45.6564","lon":"15.0889","name":"Ga\u010de - \u010crmo\u0161njice","flights":"9"},{"id":"23856x6108","lat":"45.8766","lon":"15.2688","name":"Vinji Vrh","flights":"62"},{"id":"23677x5587","lat":"45.533","lon":"13.9682","name":"Slavnik","flights":"11"},{"id":"24070x5829","lat":"46.288","lon":"14.5722","name":"Planjava - Kamni\u0161ki Vrh","flights":"919"},{"id":"24304x4782","lat":"46.7382","lon":"11.9552","name":"Kronplatz","flights":"1063"},{"id":"24089x6023","lat":"46.3252","lon":"15.0565","name":"Gora Oljka","flights":"78"},{"id":"23572x5659","lat":"45.3314","lon":"14.1482","name":"Brest","flights":"132"},{"id":"23341x5733","lat":"44.8857","lon":"14.3324","name":"Lubenice","flights":"25"},{"id":"24096x6193","lat":"46.3381","lon":"15.4826","name":"Perovec","flights":"34"},{"id":"24182x6226","lat":"46.5038","lon":"15.5662","name":"Pohorje","flights":"5"},{"id":"24097x6127","lat":"46.3405","lon":"15.318","name":"Frankolovo","flights":"17"},{"id":"24017x6042","lat":"46.1858","lon":"15.1059","name":"Mrzlica zahodni \u0161tart","flights":"70"},{"id":"23576x5459","lat":"45.3385","lon":"13.647","name":"Srbani","flights":"104"},{"id":"24153x6024","lat":"46.4474","lon":"15.0591","name":"Slovenia","flights":"3"},{"id":"24114x5964","lat":"46.3738","lon":"14.9105","name":"Golte - Rasto\u010dka Planina","flights":"67"},{"id":"24077x5962","lat":"46.3044","lon":"14.9058","name":"Pobre\u017eje","flights":"88"},{"id":"24135x5906","lat":"46.4137","lon":"14.7651","name":"Javorje","flights":"1"},{"id":"24053x5944","lat":"46.256","lon":"14.8604","name":"Menina","flights":"23"},{"id":"24119x6023","lat":"46.3824","lon":"15.057","name":"Sostanj","flights":"40"},{"id":"23893x5485","lat":"45.9472","lon":"13.7117","name":"Lijak Lz","flights":"100"},{"id":"24148x5492","lat":"46.4386","lon":"13.731","name":"M.mojstrovka","flights":"13"},{"id":"24185x5528","lat":"46.5102","lon":"13.8188","name":"Vosca","flights":"5"},{"id":"24171x5483","lat":"46.4824","lon":"13.7086","name":"Macesnovec","flights":"15"},{"id":"24079x5821","lat":"46.3064","lon":"14.5536","name":"Ko\u0161utna","flights":"17"},{"id":"24101x5548","lat":"46.348","lon":"13.8699","name":"Tosc","flights":"12"},{"id":"23957x5720","lat":"46.0705","lon":"14.299","name":"Sv. Lovrenc Polhov Gradec","flights":"676"},{"id":"23739x5681","lat":"45.652","lon":"14.2022","name":"Gura","flights":"3"},{"id":"24275x6495","lat":"46.6833","lon":"16.2365","name":"Moravske T.","flights":"73"},{"id":"23993x5744","lat":"46.1395","lon":"14.3598","name":"Hom - Medvode","flights":"13"},{"id":"24075x5857","lat":"46.2978","lon":"14.6429","name":"Velika Planina - Gradi\u0161\u010de","flights":"122"},{"id":"24070x5917","lat":"46.289","lon":"14.7933","name":"Lepenatka","flights":"1"},{"id":"24107x5839","lat":"46.3587","lon":"14.5985","name":"Kamni\u0161ko Sedlo","flights":"27"},{"id":"24367x5358","lat":"46.8599","lon":"13.3947","name":"G\u00f6riach","flights":"415"},{"id":"24021x5797","lat":"46.1946","lon":"14.4923","name":"Ljubljana","flights":"1"},{"id":"24034x5849","lat":"46.2196","lon":"14.6214","name":"\u0160pica","flights":"574"},{"id":"24106x5643","lat":"46.3585","lon":"14.1073","name":"Stra\u017ea","flights":"29"},{"id":"23987x5782","lat":"46.1282","lon":"14.4546","name":"Grmada","flights":"10"},{"id":"24108x5565","lat":"46.3608","lon":"13.9114","name":"Visevnik","flights":"3"},{"id":"24065x5793","lat":"46.2794","lon":"14.4831","name":"Slovenia","flights":"6"},{"id":"24196x6242","lat":"46.5312","lon":"15.6046","name":"Sne\u017eni Stadion Pohorje","flights":"12"},{"id":"22260x151","lat":"42.8078","lon":"0.3771","name":"Val Louron 700","flights":"616"},{"id":"22869x2592","lat":"43.9783","lon":"6.4798","name":"St. Andre","flights":"6062"},{"id":"21864x298","lat":"42.046","lon":"0.7462","name":"Ager","flights":"4292"},{"id":"21305x13284","lat":"40.9715","lon":"33.2097","name":"Bayramoren-South","flights":"369"},{"id":"24213x6347","lat":"46.564","lon":"15.8685","name":"\u010cirovi travniki","flights":"111"},{"id":"22378x6446","lat":"43.0348","lon":"16.1148","name":"Hum","flights":"148"},{"id":"22868x2597","lat":"43.9766","lon":"6.4916","name":"Saint Andr\u00e9 Les Alpes","flights":"1428"},{"id":"21284x13310","lat":"40.9312","lon":"33.2748","name":"Bayramoren","flights":"610"},{"id":"23949x5951","lat":"46.0551","lon":"14.8781","name":"Gradisce Pri Litiji","flights":"1"},{"id":"24046x6089","lat":"46.243","lon":"15.2222","name":"Celje Letalisce","flights":"3"},{"id":"23933x5988","lat":"46.0245","lon":"14.9694","name":"Velika Pec","flights":"8"},{"id":"23561x2356","lat":"45.3103","lon":"5.8908","name":"St. Hilaire","flights":"3935"},{"id":"21858x294","lat":"42.0354","lon":"0.7361","name":"Ager","flights":"233"},{"id":"22226x6742","lat":"42.7431","lon":"16.856","name":"Hum - Lastovo","flights":"1"},{"id":"24061x5805","lat":"46.2719","lon":"14.5127","name":"Davovec","flights":"25"},{"id":"23935x4730","lat":"46.0296","lon":"11.8262","name":"Monte Avena","flights":"1923"},{"id":"24069x5832","lat":"46.2874","lon":"14.5804","name":"Kamni\u0161ki Vrh","flights":"81"},{"id":"24127x5819","lat":"46.3979","lon":"14.5468","name":"Goli Vrh","flights":"29"},{"id":"21527x8616","lat":"41.3984","lon":"21.532","name":"Treskavec","flights":"92"},{"id":"24099x5746","lat":"46.3449","lon":"14.3658","name":"Tolsti Vrh","flights":"7"},{"id":"24101x5745","lat":"46.3486","lon":"14.3632","name":"Tolsti Vrh - vrh","flights":"17"},{"id":"24095x5776","lat":"46.3358","lon":"14.4411","name":"Cjanovca","flights":"32"},{"id":"24460x5208","lat":"47.0388","lon":"13.0204","name":"Moelltaler - A","flights":"61"},{"id":"23808x5611","lat":"45.784","lon":"14.027","name":"Nanos - Renjaki","flights":"17"},{"id":"23867x5567","lat":"45.8981","lon":"13.9174","name":"Stara Baba","flights":"7"},{"id":"23943x5667","lat":"46.0435","lon":"14.1671","name":"\u017dirovski Vrh-Krem\u017earjev Gri\u010d","flights":"23"},{"id":"23941x5674","lat":"46.0404","lon":"14.1842","name":"Goli Vrh","flights":"15"},{"id":"23954x5659","lat":"46.066","lon":"14.1482","name":"Zirovski Vrh","flights":"20"},{"id":"23976x5635","lat":"46.1072","lon":"14.0878","name":"Osojnica - Trebija","flights":"24"},{"id":"23943x5656","lat":"46.0443","lon":"14.14","name":"Zirovski Vrh-Mojskarc","flights":"6"},{"id":"23995x5648","lat":"46.1445","lon":"14.1201","name":"Jezgurcova sne\u017eet","flights":"7"},{"id":"24030x5412","lat":"46.211","lon":"13.5289","name":"Matajur","flights":"13"},{"id":"23972x5656","lat":"46.0991","lon":"14.1407","name":"Laj\u0161e - Gorenja vas","flights":"7"},{"id":"23869x5571","lat":"45.9007","lon":"13.9321","name":"\u010crne stene","flights":"22"},{"id":"24059x5394","lat":"46.2674","lon":"13.4838","name":"Kobari\u0161ki Stol","flights":"114"},{"id":"23932x5651","lat":"46.0233","lon":"14.1277","name":"Brekovice","flights":"7"},{"id":"23964x5647","lat":"46.0842","lon":"14.1166","name":"Kladje Sever","flights":"4"},{"id":"24046x5594","lat":"46.2417","lon":"13.9853","name":"\u0160avnik","flights":"21"},{"id":"24037x5542","lat":"46.2259","lon":"13.856","name":"Sorica","flights":"5"},{"id":"23949x5624","lat":"46.0567","lon":"14.0611","name":"Mrzli Vrh \u017diri Spodnji","flights":"7"},{"id":"23982x5671","lat":"46.1199","lon":"14.1769","name":"Dobje","flights":"6"},{"id":"24006x5671","lat":"46.1655","lon":"14.1784","name":"Podvrh","flights":"5"},{"id":"23926x5649","lat":"46.0114","lon":"14.123","name":"Ravne Pri \u017direh","flights":"5"},{"id":"24373x7002","lat":"46.8707","lon":"17.5039","name":"Csob\u00e1nc","flights":"687"},{"id":"23973x5629","lat":"46.1021","lon":"14.0732","name":"Stara Oselica","flights":"9"},{"id":"-3198x-15051","lat":"-6.1501","lon":"-37.627","name":"Bra Patu","flights":"437"},{"id":"23525x5678","lat":"45.24","lon":"14.1944","name":"\u0160u\u0161njevica","flights":"487"},{"id":"23609x5574","lat":"45.4014","lon":"13.9354","name":"Mlun","flights":"125"},{"id":"24057x6325","lat":"46.2626","lon":"15.8127","name":"Log Pri Zetalah","flights":"39"},{"id":"-15963x9611","lat":"-30.6981","lon":"24.0275","name":"De Aar","flights":"474"},{"id":"25577x8314","lat":"49.1861","lon":"20.7859","name":"Cerna Kopa","flights":"730"},{"id":"21531x11398","lat":"41.4065","lon":"28.4943","name":"Ormanli","flights":"46"},{"id":"23800x6041","lat":"45.7687","lon":"15.1034","name":"Slovenia","flights":"1"},{"id":"24115x5703","lat":"46.3745","lon":"14.2577","name":"Dobr\u010da-Brezar","flights":"36"},{"id":"23843x4723","lat":"45.8521","lon":"11.8069","name":"Monte Grappa","flights":"141"},{"id":"22256x5300","lat":"42.8003","lon":"13.2493","name":"Castelluccio","flights":"250"},{"id":"23758x5619","lat":"45.6879","lon":"14.0485","name":"Vremscica - Bukov Vrh","flights":"8"},{"id":"24099x5738","lat":"46.3444","lon":"14.3442","name":"Gozd - \u0160olski Teren","flights":"915"},{"id":"24096x5739","lat":"46.3385","lon":"14.3474","name":"Gozd","flights":"21"},{"id":"24103x5742","lat":"46.351","lon":"14.3545","name":"Tolsti Vrh Vrata","flights":"36"},{"id":"24093x5741","lat":"46.3329","lon":"14.3532","name":"Zalog","flights":"8"},{"id":"24084x5781","lat":"46.3149","lon":"14.4519","name":"Poto\u0161ka Gora-Zgornji","flights":"11"},{"id":"24083x5778","lat":"46.3143","lon":"14.4443","name":"Poto\u0161ka Gora","flights":"6"},{"id":"24092x5719","lat":"46.3299","lon":"14.2987","name":"Gozd","flights":"8"},{"id":"21511x8509","lat":"41.3673","lon":"21.2723","name":"Mal start - Kru\u0161evo","flights":"46"},{"id":"24115x5738","lat":"46.3755","lon":"14.3462","name":"Pr Ti\u010d","flights":"13"},{"id":"24093x5752","lat":"46.3318","lon":"14.3809","name":"Povlje","flights":"29"},{"id":"23861x5594","lat":"45.8871","lon":"13.9852","name":"Gabrici-Kovk","flights":"3"},{"id":"21369x8334","lat":"41.0933","lon":"20.8351","name":"Gali\u010dica Ohrid","flights":"139"},{"id":"24098x5724","lat":"46.3432","lon":"14.3097","name":"Kri\u0161ka Gora","flights":"10"},{"id":"22508x8804","lat":"43.2844","lon":"22.0101","name":"Ni\u0161ka Banja","flights":"172"},{"id":"21493x8528","lat":"41.3324","lon":"21.32","name":"Krivogastani","flights":"6"},{"id":"23942x4527","lat":"46.0416","lon":"11.3169","name":"Monte Panarotta","flights":"2400"},{"id":"-18365x58064","lat":"-35.3167","lon":"145.161","name":"Conargo SW","flights":"238"},{"id":"-18367x58066","lat":"-35.3221","lon":"145.164","name":"Conargo - W","flights":"19"},{"id":"23680x5752","lat":"45.5376","lon":"14.379","name":"Vel. Razbor","flights":"4"},{"id":"-18373x58050","lat":"-35.3328","lon":"145.126","name":"Conargo NE","flights":"81"},{"id":"-18378x57940","lat":"-35.342","lon":"144.849","name":"Greenacres","flights":"73"},{"id":"23740x5615","lat":"45.6531","lon":"14.0364","name":"None","flights":"1"},{"id":"23598x5548","lat":"45.3817","lon":"13.8695","name":"Buzet Medici","flights":"46"},{"id":"23803x5597","lat":"45.7743","lon":"13.9922","name":"Slovenia","flights":"1"},{"id":"24055x5680","lat":"46.2593","lon":"14.1992","name":"Bela Pe\u010d","flights":"32"},{"id":"22498x8304","lat":"43.2649","lon":"20.7602","name":"Cajetinska Cesma","flights":"17"},{"id":"15196x-5385","lat":"29.224","lon":"-13.4633","name":"Lanzarote - Mirador Del Rio","flights":"344"},{"id":"23391x5903","lat":"44.9818","lon":"14.757","name":"Ba\u0161ka - Mese\u010dev Start","flights":"34"},{"id":"23866x5563","lat":"45.8952","lon":"13.9063","name":"Otli\u0161ko Okno","flights":"5"},{"id":"24048x5474","lat":"46.2462","lon":"13.6848","name":"Kobala","flights":"12"},{"id":"23954x5427","lat":"46.0661","lon":"13.5663","name":"Korada","flights":"54"},{"id":"23876x3144","lat":"45.9145","lon":"7.8594","name":"Ludwigshoe","flights":"5"},{"id":"23863x5608","lat":"45.8911","lon":"14.0198","name":"Malo Polje-\u0160olski Teren","flights":"4"},{"id":"22508x16991","lat":"43.2848","lon":"42.4787","name":"","flights":"1"},{"id":"23935x5473","lat":"46.0284","lon":"13.6833","name":"Fobca","flights":"3"},{"id":"23842x2733","lat":"45.8504","lon":"6.83168","name":"Aiguille De Gouter","flights":"7"},{"id":"24059x5269","lat":"46.2674","lon":"13.1735","name":"Garzette","flights":"720"},{"id":"22354x6854","lat":"42.9883","lon":"17.1352","name":"Perna","flights":"42"},{"id":"22354x6835","lat":"42.9887","lon":"17.0871","name":"Viganj - zavoj","flights":"42"},{"id":"22355x6841","lat":"42.9896","lon":"17.1034","name":"Viganj -JI","flights":"26"},{"id":"24208x6364","lat":"46.5503","lon":"15.9138","name":"Cagona","flights":"619"},{"id":"24020x6112","lat":"46.1921","lon":"15.2802","name":"Tovsti Vrh","flights":"55"},{"id":"22357x6865","lat":"42.9947","lon":"17.1616","name":"Sv. Ilija","flights":"11"},{"id":"22354x6852","lat":"42.9885","lon":"17.1304","name":"Perna-Z","flights":"5"},{"id":"24075x6001","lat":"46.2983","lon":"15.0017","name":"Dobrovlje","flights":"25"},{"id":"23980x6056","lat":"46.1148","lon":"15.1393","name":"Gore - Hrastnik","flights":"63"},{"id":"24029x6103","lat":"46.2104","lon":"15.2569","name":"Polulski Hrib","flights":"9"},{"id":"24018x6037","lat":"46.1889","lon":"15.0929","name":"Kri\u0161ka","flights":"28"},{"id":"22524x8201","lat":"43.3155","lon":"20.502","name":"Trnava","flights":"49"},{"id":"22736x7425","lat":"43.7222","lon":"18.5622","name":"Jahorina-Ogorjelica","flights":"6"},{"id":"24080x6194","lat":"46.3091","lon":"15.4902","name":"Loce Ad","flights":"39"},{"id":"23546x5681","lat":"45.2801","lon":"14.2014","name":"Ucka - Sedlo","flights":"34"},{"id":"23422x8558","lat":"45.0428","lon":"21.3949","name":"Kustilj","flights":"63"},{"id":"24069x5929","lat":"46.2874","lon":"14.8219","name":"Semprimoz","flights":"74"},{"id":"22555x7109","lat":"43.3744","lon":"17.7737","name":"Mostar Planinica","flights":"361"},{"id":"22640x2258","lat":"43.5389","lon":"5.6443","name":"Pic Des Mouches","flights":"457"},{"id":"23463x8539","lat":"45.1219","lon":"21.3471","name":"Vrsac","flights":"111"},{"id":"27283x2678","lat":"52.4678","lon":"6.6962","name":"Bruinehaar","flights":"300"},{"id":"27283x2674","lat":"52.4673","lon":"6.6849","name":"Bruinehaar","flights":"212"},{"id":"27282x2679","lat":"52.4645","lon":"6.697","name":"Bruinehaar","flights":"135"},{"id":"24077x5714","lat":"46.3024","lon":"14.2856","name":"Slovenia","flights":"1"},{"id":"23089x2549","lat":"44.4026","lon":"6.3714","name":"St Jean","flights":"561"},{"id":"26706x-592","lat":"51.3585","lon":"-1.4805","name":"Combe Gibbet","flights":"485"},{"id":"19185x-2166","lat":"36.8948","lon":"-5.416","name":"Algodonales","flights":"2546"},{"id":"16671x30698","lat":"32.0597","lon":"76.7444","name":"Billing","flights":"5728"},{"id":"24008x2659","lat":"46.1687","lon":"6.6466","name":"Mont Chery","flights":"176"},{"id":"19187x-2157","lat":"36.8983","lon":"-5.3933","name":"Algodonales - Sierra De Lijar","flights":"2717"},{"id":"26714x-728","lat":"51.3727","lon":"-1.8203","name":"Golden Ball","flights":"133"},{"id":"26897x-1334","lat":"51.7249","lon":"-3.3358","name":"Merthyr Common","flights":"51"},{"id":"23948x2679","lat":"46.054","lon":"6.6977","name":"Plateau De Saix Fr","flights":"609"},{"id":"19230x-1970","lat":"36.9801","lon":"-4.926","name":"Teba","flights":"204"},{"id":"21842x8348","lat":"42.0046","lon":"20.8712","name":"Cerapa\u0161ina","flights":"9"},{"id":"23809x2668","lat":"45.7871","lon":"6.6706","name":"Col Du Joly","flights":"12"},{"id":"23996x2619","lat":"46.1454","lon":"6.5473","name":"Mieussy","flights":"222"},{"id":"23559x2355","lat":"45.3063","lon":"5.8882","name":"St. Hilaire","flights":"3331"},{"id":"26717x-742","lat":"51.379","lon":"-1.8558","name":"Milk Hill","flights":"229"},{"id":"26991x-1197","lat":"51.9057","lon":"-2.9925","name":"Pandy","flights":"142"},{"id":"21837x8360","lat":"41.9936","lon":"20.901","name":"Repetitor-Popova \u0160apka","flights":"60"},{"id":"16626x30747","lat":"31.9738","lon":"76.8674","name":"360 Camp","flights":"159"},{"id":"19112x-2196","lat":"36.7538","lon":"-5.4897","name":"El Bosque","flights":"689"},{"id":"21784x8419","lat":"41.8924","lon":"21.048","name":"Suva gora","flights":"1"},{"id":"27312x-1152","lat":"52.5223","lon":"-2.8808","name":"Long Mynd","flights":"457"},{"id":"24046x5429","lat":"46.2422","lon":"13.5733","name":"Kobariski Stol","flights":"8"},{"id":"24055x5799","lat":"46.26","lon":"14.4967","name":"Krvavec Lz","flights":"22"},{"id":"23939x6093","lat":"46.0372","lon":"15.2328","name":"Slovenia","flights":"2"},{"id":"24051x5440","lat":"46.252","lon":"13.5998","name":"Ozben","flights":"12"},{"id":"22250x5305","lat":"42.7894","lon":"13.2617","name":"Castelluccio Di Norcia","flights":"30"},{"id":"22263x5270","lat":"42.8131","lon":"13.1761","name":"Fontanile","flights":"236"},{"id":"22270x5278","lat":"42.8269","lon":"13.1956","name":"Castelluccio","flights":"50"},{"id":"22238x5266","lat":"42.765","lon":"13.1641","name":"Castelluccio","flights":"85"},{"id":"20164x8242","lat":"38.7766","lon":"20.6042","name":"Lefkada - Katisma","flights":"118"},{"id":"24069x5364","lat":"46.2867","lon":"13.411","name":"Kobariski Stol","flights":"5"},{"id":"24826x5334","lat":"47.743","lon":"13.3357","name":"Zwolferhorn","flights":"4"},{"id":"24133x5895","lat":"46.409","lon":"14.7366","name":"Raduha","flights":"55"},{"id":"24057x6299","lat":"46.2628","lon":"15.7464","name":"Dona\u010dka Gora","flights":"7"},{"id":"23680x5586","lat":"45.5387","lon":"13.9651","name":"Grmada - Slavnik","flights":"42"},{"id":"24858x-48015","lat":"47.8047","lon":"-120.038","name":"Chelan","flights":"2152"},{"id":"25603x7530","lat":"49.2365","lon":"18.8255","name":"Stranik","flights":"3440"},{"id":"23831x4707","lat":"45.828","lon":"11.7681","name":"Bassano Del Grappa","flights":"2857"},{"id":"-10749x-16312","lat":"-20.6717","lon":"-40.7805","name":"Alfredo Chavez","flights":"447"},{"id":"24199x4835","lat":"46.536","lon":"12.0872","name":"Cortina D Ampezzo","flights":"178"},{"id":"26663x-46754","lat":"51.2755","lon":"-116.885","name":"Golden Ba","flights":"1226"},{"id":"-10714x-16434","lat":"-20.6034","lon":"-41.0858","name":"Castelo","flights":"898"},{"id":"24021x5710","lat":"46.1951","lon":"14.274","name":"Krizna Gora","flights":"40"},{"id":"-11954x-17311","lat":"-22.9884","lon":"-43.2785","name":"Pedra Bonita","flights":"2636"},{"id":"-11941x-16807","lat":"-22.9631","lon":"-42.0175","name":"Cabo Frio","flights":"6"},{"id":"24039x5579","lat":"46.2298","lon":"13.9486","name":"\u010crna prst","flights":"6"},{"id":"23085x6818","lat":"44.3945","lon":"17.0452","name":"Mrkonji\u010d Grad","flights":"56"},{"id":"14625x-6677","lat":"28.1256","lon":"-16.6922","name":"Ifonche","flights":"1236"},{"id":"23464x8530","lat":"45.123","lon":"21.3251","name":"Vrsac","flights":"660"},{"id":"21285x8327","lat":"40.9336","lon":"20.8164","name":"Ohrid","flights":"11"},{"id":"19765x8848","lat":"38.0096","lon":"22.121","name":"Kalavrita","flights":"109"},{"id":"23927x6343","lat":"46.0127","lon":"15.8576","name":"Zabok Aerodrom","flights":"17"},{"id":"22424x7632","lat":"43.1225","lon":"19.0811","name":"Savin Kuk","flights":"15"},{"id":"24035x5526","lat":"46.2221","lon":"13.8143","name":"None","flights":"3"},{"id":"23061x6853","lat":"44.3478","lon":"17.1329","name":"Sinjakovo","flights":"19"},{"id":"23802x6023","lat":"45.7729","lon":"15.0586","name":"Doma","flights":"8"},{"id":"23806x6030","lat":"45.7807","lon":"15.0762","name":"Stra\u009aKi Hrib","flights":"3"},{"id":"24024x5840","lat":"46.2002","lon":"14.601","name":"Slovenia","flights":"2"},{"id":"23871x5569","lat":"45.9064","lon":"13.9218","name":"Kovk Stara Baba","flights":"22"},{"id":"23966x5409","lat":"46.0882","lon":"13.523","name":"Kovk","flights":"2"},{"id":"23924x5456","lat":"46.0074","lon":"13.6405","name":"Lijak","flights":"1"},{"id":"26818x5224","lat":"51.5722","lon":"13.0606","name":"Agrarflugplatz Beilrode","flights":"215"},{"id":"23869x6202","lat":"45.9015","lon":"15.5053","name":"Cerklje Mil","flights":"1"},{"id":"24071x6240","lat":"46.2908","lon":"15.6008","name":"Bo\u010d - Sever","flights":"31"},{"id":"24064x5494","lat":"46.2772","lon":"13.7362","name":"Mahav\u0161\u010dek","flights":"2"},{"id":"24076x5389","lat":"46.3003","lon":"13.4728","name":"Kobariski Stol","flights":"8"},{"id":"24015x5490","lat":"46.1829","lon":"13.7259","name":"Kobala","flights":"20"},{"id":"23756x5595","lat":"45.6855","lon":"13.9886","name":"Diva\u010da Ad","flights":"26"},{"id":"23744x5565","lat":"45.6607","lon":"13.913","name":"Lokev","flights":"20"},{"id":"23777x5602","lat":"45.7251","lon":"14.0062","name":"Dolenja Vas","flights":"13"},{"id":"23755x5590","lat":"45.6832","lon":"13.9741","name":"Diva\u010da","flights":"10"},{"id":"23675x5499","lat":"45.5295","lon":"13.7483","name":"Skocjan","flights":"3"},{"id":"23617x5589","lat":"45.4171","lon":"13.9725","name":"Buzet Lz","flights":"12"},{"id":"23694x5504","lat":"45.5654","lon":"13.7601","name":"Sermin","flights":"2"},{"id":"24050x5998","lat":"46.2501","lon":"14.9956","name":"Prekopa","flights":"38"},{"id":"23802x5685","lat":"45.7728","lon":"14.2122","name":"Postojna","flights":"2"},{"id":"24037x5305","lat":"46.2257","lon":"13.2628","name":"Bernadia","flights":"1626"},{"id":"23775x5613","lat":"45.7221","lon":"14.0331","name":"Seno\u017ee\u010de","flights":"1"},{"id":"18860x56057","lat":"36.2691","lon":"140.141","name":"Ishioka","flights":"308"},{"id":"24028x5677","lat":"46.2079","lon":"14.192","name":"Golica nad Selcami","flights":"5"},{"id":"24043x5674","lat":"46.2358","lon":"14.1848","name":"Sv. Kri\u017e Kali\u0161e","flights":"6"},{"id":"24771x5307","lat":"47.6373","lon":"13.2685","name":"Trattberg","flights":"285"},{"id":"-9823x-16766","lat":"-18.8896","lon":"-41.9153","name":"Ibituruna","flights":"5349"},{"id":"-19114x58786","lat":"-36.7584","lon":"146.966","name":"Bright Mystic Launch","flights":"4215"},{"id":"24012x5636","lat":"46.1771","lon":"14.089","name":"Marenkovcova dolina","flights":"2"},{"id":"24012x5590","lat":"46.1773","lon":"13.9748","name":"Porezen","flights":"10"},{"id":"-18933x58664","lat":"-36.4099","lon":"146.659","name":"Ray's Hill","flights":"93"},{"id":"24107x5420","lat":"46.3592","lon":"13.5492","name":"\u010cukla","flights":"15"},{"id":"19005x11662","lat":"36.549","lon":"29.1555","name":"Babadag spodnji \u0161tart","flights":"180"},{"id":"24046x5457","lat":"46.2415","lon":"13.6419","name":"Planica","flights":"15"},{"id":"19016x11647","lat":"36.569","lon":"29.1186","name":"Babadag Kozagac 900 Oludeniz","flights":"9"},{"id":"18995x11673","lat":"36.5295","lon":"29.1832","name":"Babadag Oludeniz - S","flights":"2147"},{"id":"23843x5548","lat":"45.8527","lon":"13.8694","name":"Unknown","flights":"1"},{"id":"22188x3718","lat":"42.6699","lon":"9.29448","name":"Fromontica, St. Florent","flights":"20"},{"id":"21851x3502","lat":"42.021","lon":"8.7549","name":"San Bastiano Corsica","flights":"16"},{"id":"22267x3732","lat":"42.8212","lon":"9.331","name":"France","flights":"1"},{"id":"24105x5835","lat":"46.3549","lon":"14.5872","name":"Brana","flights":"50"},{"id":"24183x5173","lat":"46.5063","lon":"12.9321","name":"Zoncolan","flights":"11"},{"id":"24313x4972","lat":"46.7551","lon":"12.4301","name":"Thurntaler","flights":"67"},{"id":"24132x6005","lat":"46.4075","lon":"15.0119","name":"Lom- Topol\u009aCica","flights":"1"},{"id":"21853x3493","lat":"42.0247","lon":"8.7313","name":"Punta Vida Korzika","flights":"14"},{"id":"22149x3611","lat":"42.5938","lon":"9.027","name":"Unknown","flights":"1"},{"id":"24209x4724","lat":"46.5562","lon":"11.8105","name":"Jimmi","flights":"83"},{"id":"22773x6596","lat":"43.7946","lon":"16.4911","name":"Svilaja","flights":"16"},{"id":"23139x5989","lat":"44.4986","lon":"14.9714","name":"Pag","flights":"2"},{"id":"24108x5669","lat":"46.3611","lon":"14.1722","name":"Lesce Bled","flights":"22"},{"id":"23957x5934","lat":"46.0719","lon":"14.8357","name":"Svibno","flights":"1"},{"id":"22772x6599","lat":"43.7919","lon":"16.4971","name":"Svilaja","flights":"66"},{"id":"23545x5909","lat":"45.2786","lon":"14.7715","name":"Lic","flights":"158"},{"id":"23360x6420","lat":"44.9234","lon":"16.0506","name":"Gomila Cazin","flights":"167"},{"id":"23510x5888","lat":"45.2272","lon":"14.708","name":"Tribalj mali","flights":"58"},{"id":"23259x5986","lat":"44.7283","lon":"14.9661","name":"Alan\u010di\u0107","flights":"108"},{"id":"23530x5861","lat":"45.2503","lon":"14.6526","name":"Tribalj","flights":"14"},{"id":"23566x5701","lat":"45.3186","lon":"14.2534","name":"Pe\u010dnik","flights":"7"},{"id":"23567x5790","lat":"45.3204","lon":"14.4754","name":"Croatia","flights":"3"},{"id":"23621x5810","lat":"45.4247","lon":"14.5259","name":"Grobnik Kripanj","flights":"5"},{"id":"9561x-39790","lat":"18.3862","lon":"-99.474","name":"Iguala","flights":"427"},{"id":"9812x-38801","lat":"18.8696","lon":"-97.0037","name":"Fortin De Las Flores","flights":"178"},{"id":"9902x-40036","lat":"19.042","lon":"-100.089","name":"Valle De Bravo El Pe\u00f1on","flights":"23"},{"id":"10366x-41462","lat":"19.9355","lon":"-103.654","name":"Tapalpa Jalisco","flights":"87"},{"id":"9915x-40048","lat":"19.0672","lon":"-100.119","name":"The Wall Freedom","flights":"43"},{"id":"9873x-39800","lat":"18.9814","lon":"-99.5033","name":"Despegue Bistro","flights":"26"},{"id":"22548x8836","lat":"43.3617","lon":"22.0898","name":"Sicevo - Fakir","flights":"122"},{"id":"10176x-40197","lat":"19.5691","lon":"-100.492","name":"Tuxpan","flights":"22"},{"id":"10474x-39320","lat":"20.1429","lon":"-98.3012","name":"Tulancingo","flights":"18"},{"id":"23253x5986","lat":"44.7178","lon":"14.9652","name":"Alan","flights":"64"},{"id":"10199x-38551","lat":"19.6127","lon":"-96.3783","name":"Mexico","flights":"1"},{"id":"9948x-39908","lat":"19.1316","lon":"-99.7689","name":"Tenancingo","flights":"1"},{"id":"9932x-40032","lat":"19.0991","lon":"-100.079","name":"El Pe\u00f1on - Valle De Bravo","flights":"7"},{"id":"9957x-40031","lat":"19.1472","lon":"-100.077","name":"Aeroclub Valle De Bravo","flights":"7"},{"id":"9526x-39793","lat":"18.3198","lon":"-99.4833","name":"Iguala","flights":"3"},{"id":"9827x-39896","lat":"18.8976","lon":"-99.7395","name":"Ixtapan De La Sal","flights":"20"},{"id":"9932x-39904","lat":"19.0994","lon":"-99.7595","name":"Vulkanen","flights":"5"},{"id":"9861x-39337","lat":"18.9635","lon":"-98.3421","name":"Chalchihuapan - Puebla","flights":"144"},{"id":"23683x7450","lat":"45.5435","lon":"18.627","name":"Osijek Cepin","flights":"285"},{"id":"10370x-41462","lat":"19.9422","lon":"-103.654","name":"Tapalpa Jalisco","flights":"155"},{"id":"22113x9957","lat":"42.5255","lon":"24.8937","name":"Bulgaria","flights":"1"},{"id":"9976x-40045","lat":"19.1845","lon":"-100.114","name":"La Torre","flights":"374"},{"id":"24040x6034","lat":"46.2303","lon":"15.0858","name":"Prebold \u0160olski Teren","flights":"190"},{"id":"24010x6369","lat":"46.1735","lon":"15.9228","name":"Malogorski","flights":"352"},{"id":"-3485x42794","lat":"-6.7019","lon":"106.984","name":"Jakarta","flights":"164"},{"id":"24188x6370","lat":"46.5146","lon":"15.9254","name":"Vitomarci","flights":"70"},{"id":"24113x6337","lat":"46.3704","lon":"15.8424","name":"Lancova vas","flights":"15"},{"id":"22729x7308","lat":"43.7087","lon":"18.2701","name":"Bjelasnica","flights":"107"},{"id":"21013x7802","lat":"40.4104","lon":"19.5062","name":"Vlore - Albania","flights":"362"},{"id":"24212x6579","lat":"46.5613","lon":"16.4471","name":"Lendava","flights":"91"},{"id":"14865x-7161","lat":"28.5867","lon":"-17.9022","name":"Puerto Naos","flights":"746"},{"id":"24974x8067","lat":"48.0271","lon":"20.1677","name":"Fedemes","flights":"19"},{"id":"20898x7840","lat":"40.1882","lon":"19.5994","name":"Logara","flights":"67"},{"id":"24022x6161","lat":"46.1966","lon":"15.4019","name":"Rifnik","flights":"12"},{"id":"24013x6169","lat":"46.1783","lon":"15.4219","name":"Vrhi\u0161ek","flights":"4"},{"id":"22293x7957","lat":"42.8709","lon":"19.8928","name":"Jejevica","flights":"29"},{"id":"24011x6168","lat":"46.1743","lon":"15.4202","name":"Sele","flights":"4"},{"id":"-4594x46085","lat":"-8.8343","lon":"115.212","name":"Timbis North","flights":"207"},{"id":"14862x-7148","lat":"28.5806","lon":"-17.8692","name":"Puerto Naos - Zgornji","flights":"911"},{"id":"24114x6348","lat":"46.3733","lon":"15.8709","name":"Pobrezje","flights":"3"},{"id":"24214x6565","lat":"46.566","lon":"16.4123","name":"Lendava","flights":"10"},{"id":"23941x6160","lat":"46.0413","lon":"15.4008","name":"Lisca","flights":"1"},{"id":"24011x6371","lat":"46.1757","lon":"15.9285","name":"Malogorski","flights":"17"},{"id":"24243x6506","lat":"46.6212","lon":"16.2646","name":"Gancani","flights":"24"},{"id":"24468x5455","lat":"47.0547","lon":"13.6377","name":"Aineck - Smucisce","flights":"54"},{"id":"24017x6201","lat":"46.1865","lon":"15.5027","name":"Bukovje v Babni Gori","flights":"14"},{"id":"23546x5905","lat":"45.2807","lon":"14.7622","name":"Li\u010d","flights":"21"},{"id":"24570x6229","lat":"47.2495","lon":"15.5727","name":"Greda","flights":"15"},{"id":"22753x6713","lat":"43.756","lon":"16.7817","name":"Kame\u0161nica","flights":"2"},{"id":"22778x6662","lat":"43.8047","lon":"16.6539","name":"Greda","flights":"2"},{"id":"15114x-5431","lat":"29.0651","lon":"-13.5764","name":"Lanzarote - Famara","flights":"279"},{"id":"15031x-5495","lat":"28.9065","lon":"-13.7376","name":"Lanzarote - Playa Quemada","flights":"230"},{"id":"17031x-6853","lat":"32.7522","lon":"-17.1319","name":"Madeira","flights":"691"},{"id":"23557x5472","lat":"45.302","lon":"13.6797","name":"Croatia","flights":"2"},{"id":"15055x-5485","lat":"28.9525","lon":"-13.7121","name":"Lanzarote - Macher","flights":"388"},{"id":"17008x-6857","lat":"32.708","lon":"-17.1418","name":"Arco Da Calheta","flights":"6810"},{"id":"23629x5452","lat":"45.4413","lon":"13.6297","name":"Croatia","flights":"1"},{"id":"23577x5472","lat":"45.341","lon":"13.679","name":"Ka\u0161telir Bura","flights":"9"},{"id":"15112x-5432","lat":"29.0618","lon":"-13.5808","name":"Teguise","flights":"325"},{"id":"23872x5764","lat":"45.9069","lon":"14.4099","name":"Zabo\u010devo","flights":"223"},{"id":"23835x5667","lat":"45.8374","lon":"14.167","name":"Sv. Lovrenc - Studeno","flights":"9"},{"id":"23695x5550","lat":"45.5678","lon":"13.8756","name":"Gaber","flights":"25"},{"id":"24829x4899","lat":"47.7473","lon":"12.2483","name":"Hochries De","flights":"3330"},{"id":"24836x5024","lat":"47.7618","lon":"12.5598","name":"Hochfelln","flights":"4203"},{"id":"24823x4913","lat":"47.7364","lon":"12.2814","name":"Hochries\/laubenstein","flights":"23"},{"id":"24743x5557","lat":"47.5835","lon":"13.8931","name":"Stoder Zinken","flights":"27"},{"id":"24048x5518","lat":"46.2462","lon":"13.7943","name":"Vrh Planje","flights":"2"},{"id":"24501x5493","lat":"47.1181","lon":"13.7323","name":"Greil","flights":"15"},{"id":"24019x5518","lat":"46.1909","lon":"13.7948","name":"Kobilja Glava","flights":"81"},{"id":"24332x4893","lat":"46.7917","lon":"12.232","name":"Thurntaler","flights":"3"},{"id":"24047x5507","lat":"46.2445","lon":"13.7671","name":"Sorica","flights":"3"},{"id":"24423x5031","lat":"46.9664","lon":"12.5785","name":"Goldried","flights":"5"},{"id":"24514x5598","lat":"47.1418","lon":"13.9938","name":"Gstoder","flights":"30"},{"id":"22876x6928","lat":"43.9918","lon":"17.3201","name":"Stozer Kupres","flights":"57"},{"id":"23023x7042","lat":"44.2748","lon":"17.6041","name":"Vla\u0161i\u010d","flights":"72"},{"id":"22856x6865","lat":"43.9538","lon":"17.1636","name":"Jaram Kupres Bih","flights":"19"},{"id":"24113x5539","lat":"46.3711","lon":"13.8463","name":"Planika","flights":"2"},{"id":"23785x6241","lat":"45.7409","lon":"15.6036","name":"Japeti\u0107","flights":"1512"},{"id":"23988x6581","lat":"46.131","lon":"16.4531","name":"Kalnik","flights":"753"},{"id":"23767x7517","lat":"45.7057","lon":"18.7921","name":"Mirkovac Baranja","flights":"52"},{"id":"23869x6380","lat":"45.9014","lon":"15.949","name":"Sljeme","flights":"154"},{"id":"24612x4009","lat":"47.3303","lon":"10.0227","name":"Diedaskompf - Schoppernau","flights":"81"},{"id":"23877x6368","lat":"45.9165","lon":"15.921","name":"Sljeme - Glista","flights":"92"},{"id":"23765x9591","lat":"45.701","lon":"23.9769","name":"Sibiu","flights":"156"},{"id":"24060x6392","lat":"46.2687","lon":"15.9795","name":"Ravna Gora Jz","flights":"41"},{"id":"23776x7503","lat":"45.7232","lon":"18.7577","name":"Mirkovci - Baranja","flights":"25"},{"id":"23988x6578","lat":"46.1304","lon":"16.4445","name":"Kalnik Borje","flights":"683"},{"id":"23689x7408","lat":"45.5549","lon":"18.5208","name":"None","flights":"7"},{"id":"23695x10226","lat":"45.5678","lon":"25.5659","name":"Postavaru","flights":"767"},{"id":"23983x6565","lat":"46.1208","lon":"16.4113","name":"Mali Kalnik","flights":"852"},{"id":"21449x8554","lat":"41.2475","lon":"21.3846","name":"None","flights":"1"},{"id":"23704x7411","lat":"45.5854","lon":"18.5275","name":"Samatovci","flights":"6"},{"id":"24020x6061","lat":"46.1914","lon":"15.1519","name":"Gozdnik","flights":"1"},{"id":"23593x5532","lat":"45.3717","lon":"13.8306","name":"Sv. Jelena","flights":"5"},{"id":"23567x5563","lat":"45.3217","lon":"13.908","name":"Bankovci - Butoniga","flights":"2"},{"id":"23783x6267","lat":"45.7371","lon":"15.6683","name":"Plesivica","flights":"85"},{"id":"23817x6337","lat":"45.802","lon":"15.8419","name":"Zagreb Jankomir","flights":"22"},{"id":"23775x6380","lat":"45.7219","lon":"15.9505","name":"Zagreb","flights":"17"},{"id":"23031x6228","lat":"44.2897","lon":"15.5703","name":"Libinje","flights":"93"},{"id":"23771x6239","lat":"45.7143","lon":"15.5969","name":"Croatia","flights":"7"},{"id":"23786x6370","lat":"45.7415","lon":"15.9243","name":"Zagreb","flights":"3"},{"id":"23193x5988","lat":"44.602","lon":"14.9697","name":"Prizna","flights":"3"},{"id":"23790x6259","lat":"45.7501","lon":"15.6463","name":"Preseka","flights":"13"},{"id":"23304x6152","lat":"44.8147","lon":"15.3802","name":"Goda\u010da","flights":"127"},{"id":"22842x6336","lat":"43.9262","lon":"15.8409","name":"Bribirska Glavica","flights":"2"},{"id":"23100x6376","lat":"44.4237","lon":"15.939","name":"Bruvno","flights":"7"},{"id":"23251x6325","lat":"44.7139","lon":"15.8122","name":"Bjelopolje","flights":"31"},{"id":"23051x6228","lat":"44.3284","lon":"15.5695","name":"Sveto Brdo","flights":"13"},{"id":"23522x7132","lat":"45.2354","lon":"17.8291","name":"Zmajevac","flights":"57"},{"id":"23997x6583","lat":"46.1474","lon":"16.4569","name":"Kalnik Sjever","flights":"4"},{"id":"23840x6931","lat":"45.8494","lon":"17.3289","name":"Korija","flights":"317"},{"id":"23157x6055","lat":"44.5322","lon":"15.1376","name":"Basaca","flights":"102"},{"id":"23159x6076","lat":"44.5368","lon":"15.1909","name":"Ljubi\u010dko Brdo","flights":"48"},{"id":"22761x4177","lat":"43.7709","lon":"10.4417","name":"San Guiliano Terme","flights":"1214"},{"id":"29843x3891","lat":"57.3902","lon":"9.7273","name":"Rubjerg Knude","flights":"75"},{"id":"21406x8235","lat":"41.1652","lon":"20.5864","name":"Tri Silka Struga","flights":"11"},{"id":"15445x-3972","lat":"29.7018","lon":"-9.9301","name":"Nid D'aigle","flights":"402"},{"id":"26258x3973","lat":"50.497","lon":"9.9318","name":"Wasserkuppe","flights":"655"},{"id":"23847x5950","lat":"45.8601","lon":"14.8747","name":"Vali\u010dna vas","flights":"8"},{"id":"23962x5732","lat":"46.0803","lon":"14.3288","name":"Polhograjska Grmada Z","flights":"47"},{"id":"24150x5524","lat":"46.4429","lon":"13.8088","name":"Lipnica","flights":"3"},{"id":"24084x5776","lat":"46.3154","lon":"14.4468","name":"Poto\u0161ka Gora - Zahod","flights":"4"},{"id":"24294x5050","lat":"46.7193","lon":"12.625","name":"Golzentipp","flights":"1187"},{"id":"24629x5048","lat":"47.3641","lon":"12.6206","name":"Westgipfel","flights":"252"},{"id":"24625x5029","lat":"47.3557","lon":"12.5716","name":"Zw\u00f6lferkogel","flights":"102"},{"id":"14908x-7176","lat":"28.6691","lon":"-17.941","name":"La Palma - Torre Del Time","flights":"12"},{"id":"23073x6180","lat":"44.3714","lon":"15.449","name":"Vi\u0161erujna","flights":"3"},{"id":"24755x4324","lat":"47.6066","lon":"10.811","name":"Buchenberg","flights":"3854"},{"id":"24691x4218","lat":"47.4821","lon":"10.5452","name":"Neunerkoepfle","flights":"4894"},{"id":"23984x5940","lat":"46.1226","lon":"14.851","name":"Klenik","flights":"2"},{"id":"24154x5026","lat":"46.4503","lon":"12.566","name":"Forni Di Sopra","flights":"38"},{"id":"23868x5742","lat":"45.9003","lon":"14.3548","name":"Zavrh Pri Borovnici","flights":"8"},{"id":"14623x-6676","lat":"28.122","lon":"-16.6902","name":"Ifonche","flights":"73"},{"id":"24170x5503","lat":"46.481","lon":"13.7584","name":"Vitranc - Fis Proga","flights":"21"},{"id":"24134x6151","lat":"46.4124","lon":"15.3763","name":"Pade\u0161ki Vrh","flights":"58"},{"id":"24156x6134","lat":"46.451","lon":"15.3462","name":"Rogla","flights":"42"},{"id":"24050x6074","lat":"46.2495","lon":"15.1854","name":"Slovenia","flights":"2"},{"id":"24111x5827","lat":"46.3675","lon":"14.5673","name":"Stajerska Rinka","flights":"18"},{"id":"24066x6161","lat":"46.28","lon":"15.4031","name":"Vodule","flights":"2"},{"id":"24243x6021","lat":"46.6216","lon":"15.0523","name":"Ojstrica","flights":"7"},{"id":"24008x6299","lat":"46.1683","lon":"15.7483","name":"Kuna Gora","flights":"48"},{"id":"22955x8095","lat":"44.1439","lon":"20.2366","name":"Rajac","flights":"207"},{"id":"22828x8088","lat":"43.8963","lon":"20.2177","name":"Ovcar","flights":"197"},{"id":"21793x9973","lat":"41.9095","lon":"24.9315","name":"Dobrostan","flights":"841"},{"id":"22522x8336","lat":"43.3115","lon":"20.8396","name":"Orlove Stene","flights":"47"},{"id":"24923x8165","lat":"47.9282","lon":"20.4114","name":"Eged","flights":"2583"},{"id":"23104x6603","lat":"44.4314","lon":"16.5072","name":"Klekova\u010da","flights":"6"},{"id":"22920x7845","lat":"44.0763","lon":"19.6129","name":"Gvozdac","flights":"14"},{"id":"22725x8860","lat":"43.7025","lon":"22.1508","name":"Tupiznica","flights":"23"},{"id":"22552x8802","lat":"43.3693","lon":"22.0043","name":"Si\u010devo Jv","flights":"17"},{"id":"2291x-30481","lat":"4.4067","lon":"-76.2034","name":"Diego Bernal - La Tulia","flights":"2785"},{"id":"22720x8867","lat":"43.6931","lon":"22.1666","name":"Tupiznica","flights":"18"},{"id":"11832x48259","lat":"22.7533","lon":"120.647","name":"Saijis","flights":"327"},{"id":"23850x8003","lat":"45.8654","lon":"20.007","name":"Fels\u0151hegy","flights":"13"},{"id":"-17348x59173","lat":"-33.3616","lon":"147.933","name":"Forbes Airfield","flights":"845"},{"id":"20107x14218","lat":"38.6682","lon":"35.546","name":"Ali Mount Kayseri","flights":"3135"},{"id":"22545x5109","lat":"43.3558","lon":"12.7719","name":"Monte Cucco","flights":"302"},{"id":"15138x-5391","lat":"29.1112","lon":"-13.4774","name":"Lanzarote - Arietta","flights":"490"},{"id":"23921x4883","lat":"46.0024","lon":"12.2075","name":"Revine Lago","flights":"1149"},{"id":"23940x4940","lat":"46.0382","lon":"12.3503","name":"Revine Lago","flights":"30"},{"id":"15194x-5389","lat":"29.22","lon":"-13.4723","name":"Lanzarote - Mirador Del Rio","flights":"210"},{"id":"23035x2305","lat":"44.2974","lon":"5.7628","name":"Chabre","flights":"3261"},{"id":"22384x5070","lat":"43.0462","lon":"12.6756","name":"Monte Subasio","flights":"414"},{"id":"24819x5055","lat":"47.7287","lon":"12.6385","name":"Unternberg","flights":"1027"},{"id":"24204x5170","lat":"46.5462","lon":"12.9245","name":"Valsecca - Ravascletto","flights":"56"},{"id":"23828x5539","lat":"45.8232","lon":"13.8483","name":"\u0160tanjel","flights":"6"},{"id":"22703x-45761","lat":"43.6602","lon":"-114.403","name":"Mt Baldy","flights":"319"},{"id":"-15860x9068","lat":"-30.5003","lon":"22.6701","name":"De Aar","flights":"3"},{"id":"23824x6071","lat":"45.8144","lon":"15.178","name":"Unknown","flights":"1"},{"id":"24093x5774","lat":"46.3336","lon":"14.4355","name":"Pod Cijanovco","flights":"9"},{"id":"23754x6082","lat":"45.6805","lon":"15.2057","name":"Smuk","flights":"4"},{"id":"-15960x9614","lat":"-30.6922","lon":"24.0342","name":"De Aar","flights":"270"},{"id":"23715x2552","lat":"45.6061","lon":"6.3798","name":"Eybaudia Alberville","flights":"90"},{"id":"20680x15842","lat":"39.769","lon":"39.6056","name":"Cakirman Erzincan","flights":"607"},{"id":"17944x18746","lat":"34.5069","lon":"46.864","name":"Veys","flights":"201"},{"id":"30870x11624","lat":"59.3646","lon":"29.0595","name":"Poddubie","flights":"9"},{"id":"23301x2584","lat":"44.8105","lon":"6.4611","name":"Puy Saint Vincent - Fra","flights":"7"},{"id":"30943x11762","lat":"59.5061","lon":"29.4042","name":"Poddubie","flights":"45"},{"id":"24328x6415","lat":"46.7842","lon":"16.0372","name":"Pertoca","flights":"31"},{"id":"30891x11580","lat":"59.4062","lon":"28.9501","name":"Poddubie","flights":"9"},{"id":"17955x18739","lat":"34.5287","lon":"46.8486","name":"Kermanshah ,, Veys","flights":"101"},{"id":"30964x11677","lat":"59.5457","lon":"29.1916","name":"Poddubie","flights":"11"},{"id":"23161x6079","lat":"44.5404","lon":"15.1964","name":"Baske Ostarije","flights":"13"},{"id":"23667x3121","lat":"45.5125","lon":"7.8034","name":"Cavaleria Piemonte","flights":"492"},{"id":"23864x5736","lat":"45.892","lon":"14.3389","name":"Sebonji Laz","flights":"5"},{"id":"23937x5722","lat":"46.0331","lon":"14.3045","name":"Slevica","flights":"66"},{"id":"23905x5701","lat":"45.9715","lon":"14.2518","name":"Planina Pri Vrhniki","flights":"55"},{"id":"24120x5629","lat":"46.3851","lon":"14.0723","name":"Viselnica","flights":"15"},{"id":"24145x5757","lat":"46.4333","lon":"14.3913","name":"Dobrca-Zmajarska","flights":"3"},{"id":"24183x4698","lat":"46.5051","lon":"11.7442","name":"Sasso Levante","flights":"34"},{"id":"24148x5742","lat":"46.4379","lon":"14.3553","name":"Kosuta - Skrbina","flights":"12"},{"id":"23661x5497","lat":"45.5023","lon":"13.7418","name":"Poljane","flights":"75"},{"id":"26207x2355","lat":"50.3987","lon":"5.8874","name":"Coo","flights":"181"},{"id":"19734x5377","lat":"37.9503","lon":"13.4416","name":"Bolognetta","flights":"209"},{"id":"23879x3470","lat":"45.9219","lon":"8.6741","name":"Monte Nudo","flights":"3408"},{"id":"22361x7971","lat":"43.0022","lon":"19.9265","name":"Bukvica","flights":"24"},{"id":"19556x5404","lat":"37.6081","lon":"13.5111","name":"Serra della moneta","flights":"31"},{"id":"24514x3707","lat":"47.1421","lon":"9.2679","name":"Schrina","flights":"620"},{"id":"26440x634","lat":"50.8472","lon":"1.58436","name":"Cran aux Oeufs","flights":"3"},{"id":"22226x7928","lat":"42.7432","lon":"19.8202","name":"Balj","flights":"39"},{"id":"23684x5540","lat":"45.5465","lon":"13.8502","name":"Ro\u017ear","flights":"4"},{"id":"26059x2004","lat":"50.113","lon":"5.01","name":"Beauraing","flights":"148"},{"id":"19744x5300","lat":"37.9693","lon":"13.2503","name":"Kumeta","flights":"698"},{"id":"18658x5739","lat":"35.8811","lon":"14.347","name":"Mtahleb S","flights":"63"},{"id":"24665x4838","lat":"47.432","lon":"12.0942","name":"Markbachjoch","flights":"600"},{"id":"23681x5746","lat":"45.5397","lon":"14.3646","name":"Mali Razbor","flights":"4"},{"id":"23660x5503","lat":"45.4996","lon":"13.757","name":"Pomjan","flights":"2"},{"id":"22373x7904","lat":"43.0257","lon":"19.759","name":"Bijelo Polje","flights":"6"},{"id":"24010x3398","lat":"46.173","lon":"8.495","name":"Trubbio","flights":"844"},{"id":"23642x5562","lat":"45.4657","lon":"13.9047","name":"Sv. Kvirik NE","flights":"4"},{"id":"18684x5763","lat":"35.9316","lon":"14.4072","name":"Burmarrad","flights":"86"},{"id":"24658x4898","lat":"47.4188","lon":"12.2438","name":"Choralpe","flights":"1628"},{"id":"23946x4538","lat":"46.0508","lon":"11.3455","name":"Vetriolo","flights":"17"},{"id":"24729x6034","lat":"47.5553","lon":"15.084","name":"Messnerin","flights":"88"},{"id":"23922x4690","lat":"46.0034","lon":"11.7242","name":"Cima Campo","flights":"3"},{"id":"24137x5939","lat":"46.4167","lon":"14.847","name":"Komen","flights":"3"},{"id":"24131x5923","lat":"46.4064","lon":"14.8067","name":"Travnik","flights":"2"},{"id":"22347x3746","lat":"42.9744","lon":"9.36462","name":"Unknown","flights":"1"},{"id":"18683x5739","lat":"35.9286","lon":"14.347","name":"Ghajn Tuffieha Bay","flights":"55"},{"id":"20669x7949","lat":"39.7474","lon":"19.8722","name":"Pantokratoras","flights":"15"},{"id":"23475x2667","lat":"45.1445","lon":"6.6681","name":"France","flights":"4"},{"id":"24168x5488","lat":"46.4766","lon":"13.7188","name":"Planica","flights":"2"},{"id":"23964x5805","lat":"46.0846","lon":"14.5137","name":"Unknown","flights":"3"},{"id":"23846x5483","lat":"45.8561","lon":"13.7082","name":"Trstelj Jug","flights":"13"},{"id":"18999x12177","lat":"36.536","lon":"30.4419","name":"Tahtali","flights":"76"},{"id":"14620x-6663","lat":"28.1154","lon":"-16.6573","name":"Jama","flights":"384"},{"id":"19000x12176","lat":"36.5379","lon":"30.4403","name":"Tahtali Ne","flights":"14"},{"id":"24583x4727","lat":"47.2741","lon":"11.8178","name":"Spieljoch","flights":"4"},{"id":"14731x-6597","lat":"28.329","lon":"-16.4915","name":"Izana North","flights":"91"},{"id":"23897x5468","lat":"45.9561","lon":"13.6709","name":"Mercator","flights":"7"},{"id":"23700x5493","lat":"45.5767","lon":"13.7325","name":"Ankaran","flights":"1"},{"id":"23816x6041","lat":"45.7997","lon":"15.1014","name":"Slovenia","flights":"2"},{"id":"24026x5827","lat":"46.203","lon":"14.5683","name":"Kriaki Grad","flights":"1"},{"id":"23845x2499","lat":"45.8563","lon":"6.2465","name":"Col De La Forclaz - Montmin","flights":"76"},{"id":"23871x6360","lat":"45.9063","lon":"15.8991","name":"Sljeme","flights":"2"},{"id":"23803x4345","lat":"45.7746","lon":"10.8628","name":"Monte Baldo","flights":"747"},{"id":"22622x6646","lat":"43.5035","lon":"16.6143","name":"Mosor - Zvjezdarnica","flights":"7"},{"id":"19190x-2163","lat":"36.9034","lon":"-5.4078","name":"Algodonales","flights":"531"},{"id":"21024x-2982","lat":"40.4308","lon":"-7.4556","name":"Azinha","flights":"2339"},{"id":"20552x-3653","lat":"39.523","lon":"-9.1328","name":"Sao Martinho Do Porto","flights":"335"},{"id":"24000x5709","lat":"46.1541","lon":"14.2714","name":"Sv. Lovrenc Pod Lubnikom","flights":"27"},{"id":"23895x5872","lat":"45.9521","lon":"14.6795","name":"None","flights":"1"},{"id":"23852x5574","lat":"45.8683","lon":"13.9347","name":"Kovk Lz","flights":"16"},{"id":"23872x6981","lat":"45.9076","lon":"17.4531","name":"Gornje Bazje","flights":"9"},{"id":"23724x6927","lat":"45.6222","lon":"17.3183","name":"Stupcanica Ili Papuk","flights":"42"},{"id":"-10989x22121","lat":"-21.1322","lon":"55.3031","name":"Reunion","flights":"2122"},{"id":"17027x-6842","lat":"32.744","lon":"-17.1044","name":"Paul Da Serra","flights":"88"},{"id":"-10932x22129","lat":"-21.0225","lon":"55.3218","name":"Bellemene","flights":"157"},{"id":"23161x2285","lat":"44.5409","lon":"5.7123","name":"Aspres","flights":"374"},{"id":"24116x5700","lat":"46.3762","lon":"14.2497","name":"Dobr\u010da - Podgorska planina","flights":"37"},{"id":"23165x2281","lat":"44.5484","lon":"5.703","name":"Les St. Apotres Sw","flights":"63"},{"id":"-15782x8743","lat":"-30.3502","lon":"21.8585","name":"Sa Vanwyksvlei","flights":"9"},{"id":"23847x5714","lat":"45.8592","lon":"14.2848","name":"Zavrh","flights":"1"},{"id":"23874x5567","lat":"45.9107","lon":"13.9183","name":"Navr\u0161e","flights":"14"},{"id":"9330x29533","lat":"17.9428","lon":"73.8314","name":"Harison Folly","flights":"181"},{"id":"9326x29522","lat":"17.9339","lon":"73.8046","name":"Harison Folly","flights":"116"},{"id":"9307x29527","lat":"17.8974","lon":"73.8183","name":"Kinghar","flights":"51"},{"id":"21529x8489","lat":"41.401","lon":"21.2237","name":"Manastir Od Tose","flights":"7"},{"id":"24117x5535","lat":"46.3783","lon":"13.8366","name":"Triglav","flights":"13"},{"id":"8162x29480","lat":"15.6963","lon":"73.6988","name":"Arambol-Goa","flights":"19"},{"id":"24136x6350","lat":"46.4153","lon":"15.8738","name":"Ptuj","flights":"1"},{"id":"21946x7597","lat":"42.2037","lon":"18.9933","name":"Buljarica","flights":"26"},{"id":"22539x7732","lat":"43.3437","lon":"19.3306","name":"Veli Bri\u010d","flights":"14"},{"id":"22280x7871","lat":"42.8465","lon":"19.6768","name":"Zekova glava","flights":"7"},{"id":"22296x7660","lat":"42.8878","lon":"19.1311","name":"Krnovo","flights":"104"},{"id":"22266x7915","lat":"42.8187","lon":"19.7878","name":"Berane Konjsko","flights":"21"},{"id":"24077x5869","lat":"46.3023","lon":"14.6734","name":"Gojska Planina","flights":"10"},{"id":"23737x6058","lat":"45.649","lon":"15.144","name":"Vrcice","flights":"4"},{"id":"24268x5562","lat":"46.6692","lon":"13.9045","name":"Ossiachberg","flights":"220"},{"id":"341x14205","lat":"0.6567","lon":"35.5114","name":"Kerio View","flights":"2110"},{"id":"24270x5559","lat":"46.6736","lon":"13.8965","name":"Gerlitzen","flights":"169"},{"id":"24042x5120","lat":"46.2341","lon":"12.8011","name":"Meduno - Monte Valinis","flights":"569"},{"id":"24281x5569","lat":"46.6934","lon":"13.9213","name":"Gerlitzen","flights":"113"},{"id":"23426x5663","lat":"45.0496","lon":"14.1572","name":"Duga Luka","flights":"21"},{"id":"24233x5475","lat":"46.6013","lon":"13.6879","name":"Dobrac","flights":"54"},{"id":"24320x5479","lat":"46.7689","lon":"13.6985","name":"Mirnock","flights":"29"},{"id":"24308x5489","lat":"46.7469","lon":"13.7224","name":"Gingeralm","flights":"15"},{"id":"24327x5531","lat":"46.7827","lon":"13.8271","name":"Kaiserburg","flights":"182"},{"id":"24226x5501","lat":"46.5888","lon":"13.7526","name":"Dobrac-Dreilanderblick","flights":"21"},{"id":"23935x4727","lat":"46.0297","lon":"11.8174","name":"Monte Avena","flights":"130"},{"id":"24436x5414","lat":"46.9928","lon":"13.5352","name":"Stubeck","flights":"17"},{"id":"19704x5099","lat":"37.8915","lon":"12.748","name":"Montagna Grande","flights":"110"},{"id":"24296x5523","lat":"46.7226","lon":"13.8078","name":"Lijak","flights":"2"},{"id":"24266x5520","lat":"46.6649","lon":"13.7996","name":"Wollaniger","flights":"1"},{"id":"23924x4890","lat":"46.0072","lon":"12.2254","name":"Revine","flights":"564"},{"id":"24272x5558","lat":"46.6768","lon":"13.8958","name":"Hlkh","flights":"10"},{"id":"24276x5512","lat":"46.685","lon":"13.7792","name":"Zauchner Alm","flights":"4"},{"id":"22887x6025","lat":"44.0131","lon":"15.0623","name":"Croatia","flights":"1"},{"id":"22958x6023","lat":"44.1509","lon":"15.058","name":"Croatia","flights":"1"},{"id":"22738x6251","lat":"43.7269","lon":"15.6277","name":"Croatia","flights":"1"},{"id":"22857x6068","lat":"43.9564","lon":"15.1693","name":"Croatia","flights":"1"},{"id":"22914x6011","lat":"44.0657","lon":"15.0277","name":"Croatia","flights":"1"},{"id":"22739x6348","lat":"43.7285","lon":"15.8708","name":"Croatia","flights":"1"},{"id":"23717x6816","lat":"45.6094","lon":"17.0389","name":"Unknown","flights":"1"},{"id":"24010x6447","lat":"46.1732","lon":"16.1183","name":"Grunfek","flights":"27"},{"id":"8805x-38741","lat":"16.9332","lon":"-96.853","name":"Zaachila","flights":"85"},{"id":"9974x-41477","lat":"19.1814","lon":"-103.692","name":"La Cumbre","flights":"140"},{"id":"24071x5357","lat":"46.291","lon":"13.3925","name":"Nad Ohojami","flights":"5"},{"id":"23924x5683","lat":"46.0075","lon":"14.2068","name":"Jereb","flights":"23"},{"id":"23895x5751","lat":"45.9519","lon":"14.3764","name":"Gori\u010dica","flights":"9"},{"id":"23836x5674","lat":"45.8379","lon":"14.1851","name":"\u0160pilnik","flights":"13"},{"id":"24763x7284","lat":"47.6209","lon":"18.2099","name":"Kocs Cs Rl","flights":"397"},{"id":"23935x5709","lat":"46.029","lon":"14.2734","name":"Gregotorca","flights":"7"},{"id":"23935x5703","lat":"46.0288","lon":"14.2586","name":"Samotorca","flights":"13"},{"id":"23863x5764","lat":"45.8906","lon":"14.4105","name":"Pri\u017enica","flights":"25"},{"id":"23871x5687","lat":"45.9054","lon":"14.2175","name":"\u017den\u010dek","flights":"20"},{"id":"23733x5701","lat":"45.6408","lon":"14.2532","name":"Ba\u010dko Jezero","flights":"10"},{"id":"23847x5703","lat":"45.8594","lon":"14.2582","name":"Jakovski Gri\u010d","flights":"7"},{"id":"23874x5686","lat":"45.9122","lon":"14.2158","name":"Sekirca","flights":"20"},{"id":"22376x6488","lat":"43.0306","lon":"16.2203","name":"Brguljac - Otok Vis","flights":"5"},{"id":"23845x7364","lat":"45.8551","lon":"18.4096","name":"Szarsomlyo","flights":"878"},{"id":"23925x5666","lat":"46.0101","lon":"14.1651","name":"Sv. Trije Kralji","flights":"10"},{"id":"23728x5687","lat":"45.6312","lon":"14.2171","name":"Gradi\u0161\u010de - Kne\u017eak","flights":"7"},{"id":"23871x5559","lat":"45.9053","lon":"13.8974","name":"Lokavec - Solski Teren","flights":"12"},{"id":"23913x5670","lat":"45.9862","lon":"14.1742","name":"Rovte - Sv. Mihael","flights":"3"},{"id":"23729x5711","lat":"45.6327","lon":"14.2774","name":"Tu\u0161\u010dak","flights":"9"},{"id":"24123x5641","lat":"46.391","lon":"14.1017","name":"Hom - Bled","flights":"19"},{"id":"23907x5774","lat":"45.9743","lon":"14.436","name":"Sv. Lovrenc Jezero","flights":"9"},{"id":"23961x5743","lat":"46.0786","lon":"14.3568","name":"Belo","flights":"7"},{"id":"23813x5563","lat":"45.7946","lon":"13.9082","name":"\u0160tjak","flights":"5"},{"id":"23904x5721","lat":"45.969","lon":"14.3015","name":"Hribi - Stara Vrhnika","flights":"4"},{"id":"23916x5695","lat":"45.9916","lon":"14.2385","name":"Tr\u010dkov Gri\u010d","flights":"6"},{"id":"23926x5653","lat":"46.0108","lon":"14.1331","name":"Izgorje","flights":"4"},{"id":"23952x5703","lat":"46.0609","lon":"14.2582","name":"Devnik","flights":"4"},{"id":"23918x5714","lat":"45.9969","lon":"14.285","name":"Velika Ligojna","flights":"2"},{"id":"23939x5715","lat":"46.0373","lon":"14.2869","name":"Koreno - Sever","flights":"5"},{"id":"24007x5900","lat":"46.1667","lon":"14.7495","name":"Kra\u0161nja","flights":"3"},{"id":"24058x5873","lat":"46.2651","lon":"14.6827","name":"Sv. Ahac - Kalise","flights":"4"},{"id":"23806x5788","lat":"45.7812","lon":"14.4702","name":"Lisec - Velike Bloke","flights":"3"},{"id":"24913x7904","lat":"47.9101","lon":"19.7609","name":"Nyikom","flights":"1435"},{"id":"23935x5642","lat":"46.0285","lon":"14.1058","name":"Pesek - Ziri","flights":"10"},{"id":"23934x5726","lat":"46.0278","lon":"14.3157","name":"Zaklanec","flights":"7"},{"id":"23923x5700","lat":"46.0056","lon":"14.2492","name":"\u017da\u017ear - Smu\u010di\u0161\u010de","flights":"3"},{"id":"23881x5899","lat":"45.9248","lon":"14.7483","name":"Nova Vas - Pol\u017eevo","flights":"2"},{"id":"23969x5628","lat":"46.0936","lon":"14.0709","name":"Vrhov\u010dkov Gri\u010d","flights":"9"},{"id":"23817x5552","lat":"45.8016","lon":"13.88","name":"Krtinovica - Ravnje","flights":"4"},{"id":"24190x6031","lat":"46.5194","lon":"15.0784","name":"Rahtel Jug","flights":"1496"},{"id":"23933x5658","lat":"46.0243","lon":"14.1441","name":"Opale","flights":"4"},{"id":"24762x7363","lat":"47.6191","lon":"18.4082","name":"V\u00e9rtessz\u0151l\u0151s","flights":"1043"},{"id":"23604x5582","lat":"45.3918","lon":"13.956","name":"Ti\u010darija","flights":"45"},{"id":"23840x5560","lat":"45.8455","lon":"13.9012","name":"Planina Nad Planino","flights":"3"},{"id":"23796x5816","lat":"45.7622","lon":"14.5392","name":"Belovka","flights":"3"},{"id":"23928x5639","lat":"46.016","lon":"14.0979","name":"Spodnji Vrsnik","flights":"7"},{"id":"23754x5729","lat":"45.6804","lon":"14.323","name":"Ulovka - Jur\u0161\u010de","flights":"7"},{"id":"23947x5684","lat":"46.0514","lon":"14.2102","name":"Planina Nad Horjulom","flights":"12"},{"id":"23965x5709","lat":"46.0844","lon":"14.2716","name":"\u010crni vrh Sova","flights":"7"},{"id":"24010x5905","lat":"46.1739","lon":"14.7625","name":"Krajno Brdo","flights":"5"},{"id":"23706x6058","lat":"45.5877","lon":"15.1456","name":"Ro\u017ei\u010d Vrh","flights":"2"},{"id":"23789x5813","lat":"45.7486","lon":"14.5319","name":"Blo\u0161\u010dek - Malo Ni\u017eje","flights":"3"},{"id":"23902x5668","lat":"45.9646","lon":"14.1709","name":"Planina - Rovtarske \u017dibr\u0161e","flights":"4"},{"id":"24004x5910","lat":"46.1609","lon":"14.7762","name":"Limbarska Gora Vzhod","flights":"3"},{"id":"24032x5989","lat":"46.215","lon":"14.9723","name":"Crni Vrh V Savinjski Dolini","flights":"8"},{"id":"23957x5631","lat":"46.0713","lon":"14.0774","name":"Mrzli Vrh - Koprivnik","flights":"5"},{"id":"23864x5972","lat":"45.8929","lon":"14.9312","name":"Kozjek","flights":"10"},{"id":"23803x5780","lat":"45.7741","lon":"14.4493","name":"Golo - Blo\u010dice","flights":"3"},{"id":"22672x8253","lat":"43.6009","lon":"20.6333","name":"Stolovi -Gt Man. Zica","flights":"216"},{"id":"23709x5604","lat":"45.5949","lon":"14.0106","name":"Gradi\u0161ica","flights":"3"},{"id":"23574x5505","lat":"45.3345","lon":"13.7634","name":"Vi\u017einada","flights":"3"},{"id":"23990x5646","lat":"46.1338","lon":"14.1156","name":"\u010cabra\u010de","flights":"7"},{"id":"23923x5707","lat":"46.0052","lon":"14.2681","name":"Gradisce - Zazar","flights":"5"},{"id":"22333x7804","lat":"42.949","lon":"19.5109","name":"Skara","flights":"29"},{"id":"23744x5711","lat":"45.6615","lon":"14.277","name":"Gradec","flights":"10"},{"id":"23752x5727","lat":"45.6776","lon":"14.3172","name":"Vardijan\u0161\u010dica","flights":"7"},{"id":"23902x5707","lat":"45.9653","lon":"14.2668","name":"Stor\u017eev Gri\u010d","flights":"5"},